TIME,TASK,GROUP,CH_R,CH_P,CH_Y,CH_H,CH_T,ARMING,AUX2,AUX3,float0,float1,float2,float3,float4,float5,float6,float7,long0,long1,long2,long3,long4,long5,long6,long7,pidRoll,pidPitch,pidYaw,pidThrust,pidHover,HOVER_MINIMAL_HEIGHT,HOVER_MIN_DISTANCE,HOVER_MAX_DISTANCE,CRC
19755,HOVER,UPD,1500,1500,1500,0,1000,1000,1000,0,0.00,0.00,0.00,0.00,0.00,0.00,0.00,0.00,0,0,0,0,0,0,0,0,0.00,0.00,0.00,0.00,0.00,100,400,500,    D35E
19766,RECV,WR,996,993,993,-1410,173,173,173,-1464,0.00,0.00,0.00,0.00,0.00,0.00,0.00,0.00,0,0,0,0,0,0,0,0,0.00,0.00,0.00,0.00,0.00,0,0,0,    FF2D
19781,RECV,WR,996,993,993,192,173,173,173,-1464,0.00,0.00,0.00,0.00,0.00,0.00,0.00,0.00,0,0,0,0,0,0,0,0,0.00,0.00,0.00,0.00,0.00,0,0,0,    6F6E
19792,HOVER,UPD,1500,1500,1500,0,1000,1000,1000,0,0.00,0.00,0.00,0.00,0.00,0.00,0.00,0.00,0,0,0,0,0,0,0,0,0.00,0.00,0.00,0.00,0.00,100,400,500,    47CB
19808,SDIST,UPD,0,0,0,31,0,0,0,0,20.71,15.53,450.00,424.11,42.58,31.93,450.00,396.78,422,15,0,0,400,31,0,0,0.00,0.00,0.00,0.00,0.00,0,0,0,    91B9
19819,RECV,WR,996,993,993,-1410,173,173,173,-1464,0.00,0.00,0.00,0.00,0.00,0.00,0.00,0.00,0,0,0,0,0,0,0,0,0.00,0.00,0.00,0.00,0.00,0,0,0,    CD9C
19830,HOVER,UPD,1500,1500,1500,0,1000,1000,1000,0,0.00,0.00,0.00,0.00,0.00,0.00,0.00,0.00,0,0,0,0,0,0,0,0,0.00,0.00,0.00,0.00,0.00,100,400,500,    EB3A
19840,RECV,WR,996,993,993,192,173,173,173,-1464,0.00,0.00,0.00,0.00,0.00,0.00,0.00,0.00,0,0,0,0,0,0,0,0,0.00,0.00,0.00,0.00,0.00,0,0,0,    44D7
19867,HOVER,UPD,1500,1500,1500,0,1000,1000,1000,0,0.00,0.00,0.00,0.00,0.00,0.00,0.00,0.00,0,0,0,0,0,0,0,0,0.00,0.00,0.00,0.00,0.00,100,400,500,    A62F
19888,HOVER,UPD,1500,1500,1500,0,1000,1000,1000,0,0.00,0.00,0.00,0.00,0.00,0.00,0.00,0.00,0,0,0,0,0,0,0,0,0.00,0.00,0.00,0.00,0.00,100,400,500,     216
19899,RECV,WR,996,993,993,-1410,173,173,173,-1464,0.00,0.00,0.00,0.00,0.00,0.00,0.00,0.00,0,0,0,0,0,0,0,0,0.00,0.00,0.00,0.00,0.00,0,0,0,     B04
19914,SDIST,UPD,0,0,0,31,0,0,0,0,20.69,15.52,450.00,424.13,42.36,31.77,450.00,397.05,425,15,0,0,400,31,0,0,0.00,0.00,0.00,0.00,0.00,0,0,0,    5B18
19925,HOVER,UPD,1500,1500,1500,0,1000,1000,1000,0,0.00,0.00,0.00,0.00,0.00,0.00,0.00,0.00,0,0,0,0,0,0,0,0,0.00,0.00,0.00,0.00,0.00,100,400,500,     846
19915,RECV,WR,996,993,993,192,173,173,173,-1464,0.00,0.00,0.00,0.00,0.00,0.00,0.00,0.00,0,0,0,0,0,0,0,0,0.00,0.00,0.00,0.00,0.00,0,0,0,    C352
19952,HOVER,UPD,1500,1500,1500,0,1000,1000,1000,0,0.00,0.00,0.00,0.00,0.00,0.00,0.00,0.00,0,0,0,0,0,0,0,0,0.00,0.00,0.00,0.00,0.00,100,400,500,    C89E
19973,HOVER,UPD,1500,1500,1500,0,1000,1000,1000,0,0.00,0.00,0.00,0.00,0.00,0.00,0.00,0.00,0,0,0,0,0,0,0,0,0.00,0.00,0.00,0.00,0.00,100,400,500,    70FB
19984,RECV,WR,996,993,993,-1410,173,173,173,-1464,0.00,0.00,0.00,0.00,0.00,0.00,0.00,0.00,0,0,0,0,0,0,0,0,0.00,0.00,0.00,0.00,0.00,0,0,0,    BA3F
19999,RECV,WR,996,993,993,192,173,173,173,-1464,0.00,0.00,0.00,0.00,0.00,0.00,0.00,0.00,0,0,0,0,0,0,0,0,0.00,0.00,0.00,0.00,0.00,0,0,0,    9396
20010,HOVER,UPD,1500,1500,1500,0,1000,1000,1000,0,0.00,0.00,0.00,0.00,0.00,0.00,0.00,0.00,0,0,0,0,0,0,0,0,0.00,0.00,0.00,0.00,0.00,100,400,500,    D184
20010,SDIST,UPD,0,0,0,31,0,0,0,0,20.76,15.57,450.00,424.05,42.17,31.63,450.00,397.29,421,15,0,0,400,31,0,0,0.00,0.00,0.00,0.00,0.00,0,0,0,    C74F
20037,HOVER,UPD,1500,1500,1500,0,1000,1000,1000,0,0.00,0.00,0.00,0.00,0.00,0.00,0.00,0.00,0,0,0,0,0,0,0,0,0.00,0.00,0.00,0.00,0.00,100,400,500,    D411
20048,RECV,WR,996,993,993,-1410,173,173,173,-1464,0.00,0.00,0.00,0.00,0.00,0.00,0.00,0.00,0,0,0,0,0,0,0,0,0.00,0.00,0.00,0.00,0.00,0,0,0,     FCB
20063,RECV,WR,996,993,993,192,173,173,173,-1464,0.00,0.00,0.00,0.00,0.00,0.00,0.00,0.00,0,0,0,0,0,0,0,0,0.00,0.00,0.00,0.00,0.00,0,0,0,    DFB3
20074,HOVER,UPD,1500,1500,1500,0,1000,1000,1000,0,0.00,0.00,0.00,0.00,0.00,0.00,0.00,0.00,0,0,0,0,0,0,0,0,0.00,0.00,0.00,0.00,0.00,100,400,500,    8152
20090,SDIST,UPD,0,0,0,31,0,0,0,0,20.70,15.52,450.00,424.13,42.64,31.98,450.00,396.71,427,15,0,0,390,31,0,0,0.00,0.00,0.00,0.00,0.00,0,0,0,    74A8
20101,RECV,WR,996,993,993,-1410,173,173,173,-1464,0.00,0.00,0.00,0.00,0.00,0.00,0.00,0.00,0,0,0,0,0,0,0,0,0.00,0.00,0.00,0.00,0.00,0,0,0,     5D5
20112,HOVER,UPD,1500,1500,1500,0,1000,1000,1000,0,0.00,0.00,0.00,0.00,0.00,0.00,0.00,0.00,0,0,0,0,0,0,0,0,0.00,0.00,0.00,0.00,0.00,100,400,500,    7456
20122,RECV,WR,996,993,993,192,173,173,173,-1464,0.00,0.00,0.00,0.00,0.00,0.00,0.00,0.00,0,0,0,0,0,0,0,0,0.00,0.00,0.00,0.00,0.00,0,0,0,    3F67
20149,HOVER,UPD,1500,1500,1500,0,1000,1000,1000,0,0.00,0.00,0.00,0.00,0.00,0.00,0.00,0.00,0,0,0,0,0,0,0,0,0.00,0.00,0.00,0.00,0.00,100,400,500,    5282
20170,HOVER,UPD,1500,1500,1500,0,1000,1000,1000,0,0.00,0.00,0.00,0.00,0.00,0.00,0.00,0.00,0,0,0,0,0,0,0,0,0.00,0.00,0.00,0.00,0.00,100,400,500,    9970
20170,SDIST,UPD,0,0,0,31,0,0,0,0,20.72,15.54,450.00,424.10,42.41,31.81,450.00,396.98,423,15,0,0,400,31,0,0,0.00,0.00,0.00,0.00,0.00,0,0,0,    7941
20171,RECV,WR,996,993,993,-1410,173,173,173,-1464,0.00,0.00,0.00,0.00,0.00,0.00,0.00,0.00,0,0,0,0,0,0,0,0,0.00,0.00,0.00,0.00,0.00,0,0,0,    4FEC
20203,HOVER,UPD,1500,1500,1500,0,1000,1000,1000,0,0.00,0.00,0.00,0.00,0.00,0.00,0.00,0.00,0,0,0,0,0,0,0,0,0.00,0.00,0.00,0.00,0.00,100,400,500,    CCAF
20214,RECV,WR,996,993,993,192,173,173,173,-1464,0.00,0.00,0.00,0.00,0.00,0.00,0.00,0.00,0,0,0,0,0,0,0,0,0.00,0.00,0.00,0.00,0.00,0,0,0,    39F1
20240,HOVER,UPD,1500,1500,1500,0,1000,1000,1000,0,0.00,0.00,0.00,0.00,0.00,0.00,0.00,0.00,0,0,0,0,0,0,0,0,0.00,0.00,0.00,0.00,0.00,100,400,500,    99EC
20261,HOVER,UPD,1500,1500,1500,0,1000,1000,1000,0,0.00,0.00,0.00,0.00,0.00,0.00,0.00,0.00,0,0,0,0,0,0,0,0,0.00,0.00,0.00,0.00,0.00,100,400,500,    2189
20272,RECV,WR,996,993,993,-1410,173,173,173,-1464,0.00,0.00,0.00,0.00,0.00,0.00,0.00,0.00,0,0,0,0,0,0,0,0,0.00,0.00,0.00,0.00,0.00,0,0,0,    57C4
20283,SDIST,UPD,0,0,0,32,0,0,0,0,20.72,15.54,450.00,424.10,42.87,32.15,450.00,396.41,424,15,0,0,390,32,0,0,0.00,0.00,0.00,0.00,0.00,0,0,0,    11F8
20293,RECV,WR,996,993,993,192,173,173,173,-1464,0.00,0.00,0.00,0.00,0.00,0.00,0.00,0.00,0,0,0,0,0,0,0,0,0.00,0.00,0.00,0.00,0.00,0,0,0,    B3A6
20304,HOVER,UPD,1500,1500,1500,0,1000,1000,1000,0,0.00,0.00,0.00,0.00,0.00,0.00,0.00,0.00,0,0,0,0,0,0,0,0,0.00,0.00,0.00,0.00,0.00,100,400,500,    8A75
20336,HOVER,UPD,1500,1500,1500,0,1000,1000,1000,0,0.00,0.00,0.00,0.00,0.00,0.00,0.00,0.00,0,0,0,0,0,0,0,0,0.00,0.00,0.00,0.00,0.00,100,400,500,    A21E
20338,RECV,WR,996,993,993,-1410,173,173,173,-1464,0.00,0.00,0.00,0.00,0.00,0.00,0.00,0.00,0,0,0,0,0,0,0,0,0.00,0.00,0.00,0.00,0.00,0,0,0,    85B9
20362,RECV,WR,996,993,993,192,173,173,173,-1464,0.00,0.00,0.00,0.00,0.00,0.00,0.00,0.00,0,0,0,0,0,0,0,0,0.00,0.00,0.00,0.00,0.00,0,0,0,    AA45
20373,HOVER,UPD,1500,1500,1500,0,1000,1000,1000,0,0.00,0.00,0.00,0.00,0.00,0.00,0.00,0.00,0,0,0,0,0,0,0,0,0.00,0.00,0.00,0.00,0.00,100,400,500,    4AAD
20384,SDIST,UPD,0,0,0,31,0,0,0,0,20.82,15.61,450.00,423.98,42.63,31.97,450.00,396.72,420,15,0,0,400,31,0,0,0.00,0.00,0.00,0.00,0.00,0,0,0,    D5C4
20400,HOVER,UPD,1500,1500,1500,0,1000,1000,1000,0,0.00,0.00,0.00,0.00,0.00,0.00,0.00,0.00,0,0,0,0,0,0,0,0,0.00,0.00,0.00,0.00,0.00,100,400,500,    1519
20411,RECV,WR,996,993,993,-1410,173,173,173,-1464,0.00,0.00,0.00,0.00,0.00,0.00,0.00,0.00,0,0,0,0,0,0,0,0,0.00,0.00,0.00,0.00,0.00,0,0,0,    4DFA
20426,RECV,WR,996,993,993,192,173,173,173,-1464,0.00,0.00,0.00,0.00,0.00,0.00,0.00,0.00,0,0,0,0,0,0,0,0,0.00,0.00,0.00,0.00,0.00,0,0,0,    D1F5
20437,HOVER,UPD,1500,1500,1500,0,1000,1000,1000,0,0.00,0.00,0.00,0.00,0.00,0.00,0.00,0.00,0,0,0,0,0,0,0,0,0.00,0.00,0.00,0.00,0.00,100,400,500,    DE7A
20453,SDIST,UPD,0,0,0,31,0,0,0,0,20.74,15.56,450.00,424.07,42.41,31.80,450.00,396.99,427,15,0,0,400,31,0,0,0.00,0.00,0.00,0.00,0.00,0,0,0,    90B1
20464,RECV,WR,996,993,993,-1410,173,173,173,-1464,0.00,0.00,0.00,0.00,0.00,0.00,0.00,0.00,0,0,0,0,0,0,0,0,0.00,0.00,0.00,0.00,0.00,0,0,0,    7F47
20475,HOVER,UPD,1500,1500,1500,0,1000,1000,1000,0,0.00,0.00,0.00,0.00,0.00,0.00,0.00,0.00,0,0,0,0,0,0,0,0,0.00,0.00,0.00,0.00,0.00,100,400,500,    BE91
20485,RECV,WR,996,993,993,192,173,173,173,-1464,0.00,0.00,0.00,0.00,0.00,0.00,0.00,0.00,0,0,0,0,0,0,0,0,0.00,0.00,0.00,0.00,0.00,0,0,0,    3F1B
20512,HOVER,UPD,1500,1500,1500,0,1000,1000,1000,0,0.00,0.00,0.00,0.00,0.00,0.00,0.00,0.00,0,0,0,0,0,0,0,0,0.00,0.00,0.00,0.00,0.00,100,400,500,    7E3D
20533,HOVER,UPD,1500,1500,1500,0,1000,1000,1000,0,0.00,0.00,0.00,0.00,0.00,0.00,0.00,0.00,0,0,0,0,0,0,0,0,0.00,0.00,0.00,0.00,0.00,100,400,500,    C658
20544,RECV,WR,996,993,993,-1410,173,173,173,-1464,0.00,0.00,0.00,0.00,0.00,0.00,0.00,0.00,0,0,0,0,0,0,0,0,0.00,0.00,0.00,0.00,0.00,0,0,0,     ED8
20559,SDIST,UPD,0,0,0,31,0,0,0,0,20.70,15.52,450.00,424.13,42.21,31.66,450.00,397.24,426,15,0,0,400,31,0,0,0.00,0.00,0.00,0.00,0.00,0,0,0,    9D98
20570,HOVER,UPD,1500,1500,1500,0,1000,1000,1000,0,0.00,0.00,0.00,0.00,0.00,0.00,0.00,0.00,0,0,0,0,0,0,0,0,0.00,0.00,0.00,0.00,0.00,100,400,500,    931B
20560,RECV,WR,996,993,993,192,173,173,173,-1464,0.00,0.00,0.00,0.00,0.00,0.00,0.00,0.00,0,0,0,0,0,0,0,0,0.00,0.00,0.00,0.00,0.00,0,0,0,    41A9
20597,HOVER,UPD,1500,1500,1500,0,1000,1000,1000,0,0.00,0.00,0.00,0.00,0.00,0.00,0.00,0.00,0,0,0,0,0,0,0,0,0.00,0.00,0.00,0.00,0.00,100,400,500,    8A43
20618,HOVER,UPD,1500,1500,1500,0,1000,1000,1000,0,0.00,0.00,0.00,0.00,0.00,0.00,0.00,0.00,0,0,0,0,0,0,0,0,0.00,0.00,0.00,0.00,0.00,100,400,500,    EBAB
20629,RECV,WR,996,993,993,-1410,173,173,173,-1464,0.00,0.00,0.00,0.00,0.00,0.00,0.00,0.00,0,0,0,0,0,0,0,0,0.00,0.00,0.00,0.00,0.00,0,0,0,    75A8
20644,RECV,WR,996,993,993,192,173,173,173,-1464,0.00,0.00,0.00,0.00,0.00,0.00,0.00,0.00,0,0,0,0,0,0,0,0,0.00,0.00,0.00,0.00,0.00,0,0,0,    FD73
20655,HOVER,UPD,1500,1500,1500,0,1000,1000,1000,0,0.00,0.00,0.00,0.00,0.00,0.00,0.00,0.00,0,0,0,0,0,0,0,0,0.00,0.00,0.00,0.00,0.00,100,400,500,    BE79
20655,SDIST,UPD,0,0,0,31,0,0,0,0,20.73,15.54,450.00,424.09,42.03,31.52,450.00,397.46,423,15,0,0,400,31,0,0,0.00,0.00,0.00,0.00,0.00,0,0,0,    182C
20682,HOVER,UPD,1500,1500,1500,0,1000,1000,1000,0,0.00,0.00,0.00,0.00,0.00,0.00,0.00,0.00,0,0,0,0,0,0,0,0,0.00,0.00,0.00,0.00,0.00,100,400,500,    E41A
20693,RECV,WR,996,993,993,-1410,173,173,173,-1464,0.00,0.00,0.00,0.00,0.00,0.00,0.00,0.00,0,0,0,0,0,0,0,0,0.00,0.00,0.00,0.00,0.00,0,0,0,    6B4D
20708,RECV,WR,996,993,993,192,173,173,173,-1464,0.00,0.00,0.00,0.00,0.00,0.00,0.00,0.00,0,0,0,0,0,0,0,0,0.00,0.00,0.00,0.00,0.00,0,0,0,    1A29
20719,HOVER,UPD,1500,1500,1500,0,1000,1000,1000,0,0.00,0.00,0.00,0.00,0.00,0.00,0.00,0.00,0,0,0,0,0,0,0,0,0.00,0.00,0.00,0.00,0.00,100,400,500,    1081
20735,SDIST,UPD,0,0,0,31,0,0,0,0,20.75,15.56,450.00,424.06,41.87,31.40,450.00,397.66,423,15,0,0,400,31,0,0,0.00,0.00,0.00,0.00,0.00,0,0,0,    541C
20746,RECV,WR,996,993,993,-1410,173,173,173,-1464,0.00,0.00,0.00,0.00,0.00,0.00,0.00,0.00,0,0,0,0,0,0,0,0,0.00,0.00,0.00,0.00,0.00,0,0,0,    EEF7
20756,HOVER,UPD,1500,1500,1500,0,1000,1000,1000,0,0.00,0.00,0.00,0.00,0.00,0.00,0.00,0.00,0,0,0,0,0,0,0,0,0.00,0.00,0.00,0.00,0.00,100,400,500,    2E03
20767,RECV,WR,996,993,993,192,173,173,173,-1464,0.00,0.00,0.00,0.00,0.00,0.00,0.00,0.00,0,0,0,0,0,0,0,0,0.00,0.00,0.00,0.00,0.00,0,0,0,    517C
20794,HOVER,UPD,1500,1500,1500,0,1000,1000,1000,0,0.00,0.00,0.00,0.00,0.00,0.00,0.00,0.00,0,0,0,0,0,0,0,0,0.00,0.00,0.00,0.00,0.00,100,400,500,    599E
20815,HOVER,UPD,1500,1500,1500,0,1000,1000,1000,0,0.00,0.00,0.00,0.00,0.00,0.00,0.00,0.00,0,0,0,0,0,0,0,0,0.00,0.00,0.00,0.00,0.00,100,400,500,    265A
20815,SDIST,UPD,0,0,0,31,0,0,0,0,20.80,15.60,450.00,424.00,41.73,31.30,450.00,397.84,422,15,0,0,400,31,0,0,0.00,0.00,0.00,0.00,0.00,0,0,0,    4CDA
20816,RECV,WR,996,993,993,-1410,173,173,173,-1464,0.00,0.00,0.00,0.00,0.00,0.00,0.00,0.00,0,0,0,0,0,0,0,0,0.00,0.00,0.00,0.00,0.00,0,0,0,    646C
20848,HOVER,UPD,1500,1500,1500,0,1000,1000,1000,0,0.00,0.00,0.00,0.00,0.00,0.00,0.00,0.00,0,0,0,0,0,0,0,0,0.00,0.00,0.00,0.00,0.00,100,400,500,    BD7E
20859,RECV,WR,996,993,993,192,173,173,173,-1464,0.00,0.00,0.00,0.00,0.00,0.00,0.00,0.00,0,0,0,0,0,0,0,0,0.00,0.00,0.00,0.00,0.00,0,0,0,    3A08
20885,HOVER,UPD,1500,1500,1500,0,1000,1000,1000,0,0.00,0.00,0.00,0.00,0.00,0.00,0.00,0.00,0,0,0,0,0,0,0,0,0.00,0.00,0.00,0.00,0.00,100,400,500,    FFDA
20906,HOVER,UPD,1500,1500,1500,0,1000,1000,1000,0,0.00,0.00,0.00,0.00,0.00,0.00,0.00,0.00,0,0,0,0,0,0,0,0,0.00,0.00,0.00,0.00,0.00,100,400,500,    78D6
20917,RECV,WR,996,993,993,-1410,173,173,173,-1464,0.00,0.00,0.00,0.00,0.00,0.00,0.00,0.00,0,0,0,0,0,0,0,0,0.00,0.00,0.00,0.00,0.00,0,0,0,    9C6B
20928,SDIST,UPD,0,0,0,31,0,0,0,0,20.80,15.60,450.00,424.00,41.60,31.20,450.00,398.00,424,15,0,0,400,31,0,0,0.00,0.00,0.00,0.00,0.00,0,0,0,    8557
20939,RECV,WR,996,993,993,192,173,173,173,-1464,0.00,0.00,0.00,0.00,0.00,0.00,0.00,0.00,0,0,0,0,0,0,0,0,0.00,0.00,0.00,0.00,0.00,0,0,0,    85E6
20949,HOVER,UPD,1500,1500,1500,0,1000,1000,1000,0,0.00,0.00,0.00,0.00,0.00,0.00,0.00,0.00,0,0,0,0,0,0,0,0,0.00,0.00,0.00,0.00,0.00,100,400,500,    4654
20981,HOVER,UPD,1500,1500,1500,0,1000,1000,1000,0,0.00,0.00,0.00,0.00,0.00,0.00,0.00,0.00,0,0,0,0,0,0,0,0,0.00,0.00,0.00,0.00,0.00,100,400,500,    E7F8
20983,RECV,WR,996,993,993,-1410,173,173,173,-1464,0.00,0.00,0.00,0.00,0.00,0.00,0.00,0.00,0,0,0,0,0,0,0,0,0.00,0.00,0.00,0.00,0.00,0,0,0,    829A
21007,RECV,WR,996,993,993,192,173,173,173,-1464,0.00,0.00,0.00,0.00,0.00,0.00,0.00,0.00,0,0,0,0,0,0,0,0,0.00,0.00,0.00,0.00,0.00,0,0,0,    56A6
21018,HOVER,UPD,1500,1500,1500,0,1000,1000,1000,0,0.00,0.00,0.00,0.00,0.00,0.00,0.00,0.00,0,0,0,0,0,0,0,0,0.00,0.00,0.00,0.00,0.00,100,400,500,    D667
21029,SDIST,UPD,0,0,0,31,0,0,0,0,20.75,15.57,450.00,424.06,42.06,31.54,450.00,397.43,426,15,0,0,390,31,0,0,0.00,0.00,0.00,0.00,0.00,0,0,0,    C4F8
21045,HOVER,UPD,1500,1500,1500,0,1000,1000,1000,0,0.00,0.00,0.00,0.00,0.00,0.00,0.00,0.00,0,0,0,0,0,0,0,0,0.00,0.00,0.00,0.00,0.00,100,400,500,    4D43
21056,RECV,WR,996,993,993,-1410,173,173,173,-1464,0.00,0.00,0.00,0.00,0.00,0.00,0.00,0.00,0,0,0,0,0,0,0,0,0.00,0.00,0.00,0.00,0.00,0,0,0,    576E
21071,RECV,WR,996,993,993,192,173,173,173,-1464,0.00,0.00,0.00,0.00,0.00,0.00,0.00,0.00,0,0,0,0,0,0,0,0,0.00,0.00,0.00,0.00,0.00,0,0,0,    7D2C
21082,HOVER,UPD,1500,1500,1500,0,1000,1000,1000,0,0.00,0.00,0.00,0.00,0.00,0.00,0.00,0.00,0,0,0,0,0,0,0,0,0.00,0.00,0.00,0.00,0.00,100,400,500,    D9D6
21098,SDIST,UPD,0,0,0,31,0,0,0,0,20.64,15.48,450.00,424.20,41.90,31.43,450.00,397.62,429,15,0,0,400,31,0,0,0.00,0.00,0.00,0.00,0.00,0,0,0,    508C
21109,RECV,WR,996,993,993,-1410,173,173,173,-1464,0.00,0.00,0.00,0.00,0.00,0.00,0.00,0.00,0,0,0,0,0,0,0,0,0.00,0.00,0.00,0.00,0.00,0,0,0,    E544
21120,HOVER,UPD,1500,1500,1500,0,1000,1000,1000,0,0.00,0.00,0.00,0.00,0.00,0.00,0.00,0.00,0,0,0,0,0,0,0,0,0.00,0.00,0.00,0.00,0.00,100,400,500,    E6BF
21130,RECV,WR,996,993,993,192,173,173,173,-1464,0.00,0.00,0.00,0.00,0.00,0.00,0.00,0.00,0,0,0,0,0,0,0,0,0.00,0.00,0.00,0.00,0.00,0,0,0,    9DF8
21157,HOVER,UPD,1500,1500,1500,0,1000,1000,1000,0,0.00,0.00,0.00,0.00,0.00,0.00,0.00,0.00,0,0,0,0,0,0,0,0,0.00,0.00,0.00,0.00,0.00,100,400,500,    2667
21178,HOVER,UPD,1500,1500,1500,0,1000,1000,1000,0,0.00,0.00,0.00,0.00,0.00,0.00,0.00,0.00,0,0,0,0,0,0,0,0,0.00,0.00,0.00,0.00,0.00,100,400,500,    9E93
21189,RECV,WR,996,993,993,-1410,173,173,173,-1464,0.00,0.00,0.00,0.00,0.00,0.00,0.00,0.00,0,0,0,0,0,0,0,0,0.00,0.00,0.00,0.00,0.00,0,0,0,    23DC
21204,SDIST,UPD,0,0,0,31,0,0,0,0,20.69,15.52,450.00,424.13,42.35,31.77,450.00,397.06,422,15,0,0,390,31,0,0,0.00,0.00,0.00,0.00,0.00,0,0,0,    FCA5
21215,HOVER,UPD,1500,1500,1500,0,1000,1000,1000,0,0.00,0.00,0.00,0.00,0.00,0.00,0.00,0.00,0,0,0,0,0,0,0,0,0.00,0.00,0.00,0.00,0.00,100,400,500,     52B
21215,RECV,WR,996,993,993,192,173,173,173,-1464,0.00,0.00,0.00,0.00,0.00,0.00,0.00,0.00,0,0,0,0,0,0,0,0,0.00,0.00,0.00,0.00,0.00,0,0,0,    8CB7
21242,HOVER,UPD,1500,1500,1500,0,1000,1000,1000,0,0.00,0.00,0.00,0.00,0.00,0.00,0.00,0.00,0,0,0,0,0,0,0,0,0.00,0.00,0.00,0.00,0.00,100,400,500,    483E
21263,HOVER,UPD,1500,1500,1500,0,1000,1000,1000,0,0.00,0.00,0.00,0.00,0.00,0.00,0.00,0.00,0,0,0,0,0,0,0,0,0.00,0.00,0.00,0.00,0.00,100,400,500,    F05B
21274,RECV,WR,996,993,993,-1410,173,173,173,-1464,0.00,0.00,0.00,0.00,0.00,0.00,0.00,0.00,0,0,0,0,0,0,0,0,0.00,0.00,0.00,0.00,0.00,0,0,0,    86E7
21290,HOVER,UPD,1500,1500,1500,0,1000,1000,1000,0,0.00,0.00,0.00,0.00,0.00,0.00,0.00,0.00,0,0,0,0,0,0,0,0,0.00,0.00,0.00,0.00,0.00,100,400,500,    F155
21290,RECV,WR,996,993,993,192,173,173,173,-1464,0.00,0.00,0.00,0.00,0.00,0.00,0.00,0.00,0,0,0,0,0,0,0,0,0.00,0.00,0.00,0.00,0.00,0,0,0,    4DEB
21291,SDIST,UPD,0,0,0,31,0,0,0,0,20.70,15.52,450.00,424.13,42.17,31.63,450.00,397.29,424,15,0,0,400,31,0,0,0.00,0.00,0.00,0.00,0.00,0,0,0,    1D4F
21323,HOVER,UPD,1500,1500,1500,0,1000,1000,1000,0,0.00,0.00,0.00,0.00,0.00,0.00,0.00,0.00,0,0,0,0,0,0,0,0,0.00,0.00,0.00,0.00,0.00,100,400,500,    3562
21344,HOVER,UPD,1500,1500,1500,0,1000,1000,1000,0,0.00,0.00,0.00,0.00,0.00,0.00,0.00,0.00,0,0,0,0,0,0,0,0,0.00,0.00,0.00,0.00,0.00,100,400,500,    3B4C
21344,RECV,WR,996,993,993,-1410,173,173,173,-1464,0.00,0.00,0.00,0.00,0.00,0.00,0.00,0.00,0,0,0,0,0,0,0,0,0.00,0.00,0.00,0.00,0.00,0,0,0,    EFAB
21372,RECV,WR,996,993,993,192,173,173,173,-1464,0.00,0.00,0.00,0.00,0.00,0.00,0.00,0.00,0,0,0,0,0,0,0,0,0.00,0.00,0.00,0.00,0.00,0,0,0,    43D1
21383,HOVER,UPD,1500,1500,1500,0,1000,1000,1000,0,0.00,0.00,0.00,0.00,0.00,0.00,0.00,0.00,0,0,0,0,0,0,0,0,0.00,0.00,0.00,0.00,0.00,100,400,500,    AFD9
21383,SDIST,UPD,0,0,0,31,0,0,0,0,20.63,15.47,450.00,424.22,42.00,31.50,450.00,397.50,427,15,0,0,400,31,0,0,0.00,0.00,0.00,0.00,0.00,0,0,0,    AABE
21410,HOVER,UPD,1500,1500,1500,0,1000,1000,1000,0,0.00,0.00,0.00,0.00,0.00,0.00,0.00,0.00,0,0,0,0,0,0,0,0,0.00,0.00,0.00,0.00,0.00,100,400,500,    616D
21421,RECV,WR,996,993,993,-1410,173,173,173,-1464,0.00,0.00,0.00,0.00,0.00,0.00,0.00,0.00,0,0,0,0,0,0,0,0,0.00,0.00,0.00,0.00,0.00,0,0,0,    154B
21436,RECV,WR,996,993,993,192,173,173,173,-1464,0.00,0.00,0.00,0.00,0.00,0.00,0.00,0.00,0,0,0,0,0,0,0,0,0.00,0.00,0.00,0.00,0.00,0,0,0,    3861
21447,HOVER,UPD,1500,1500,1500,0,1000,1000,1000,0,0.00,0.00,0.00,0.00,0.00,0.00,0.00,0.00,0,0,0,0,0,0,0,0,0.00,0.00,0.00,0.00,0.00,100,400,500,    2C78
21463,SDIST,UPD,0,0,0,31,0,0,0,0,20.68,15.51,450.00,424.15,41.85,31.39,450.00,397.69,422,15,0,0,400,31,0,0,0.00,0.00,0.00,0.00,0.00,0,0,0,    3E0B
21474,RECV,WR,996,993,993,-1410,173,173,173,-1464,0.00,0.00,0.00,0.00,0.00,0.00,0.00,0.00,0,0,0,0,0,0,0,0,0.00,0.00,0.00,0.00,0.00,0,0,0,    1650
21485,HOVER,UPD,1500,1500,1500,0,1000,1000,1000,0,0.00,0.00,0.00,0.00,0.00,0.00,0.00,0.00,0,0,0,0,0,0,0,0,0.00,0.00,0.00,0.00,0.00,100,400,500,    5BE5
21495,RECV,WR,996,993,993,192,173,173,173,-1464,0.00,0.00,0.00,0.00,0.00,0.00,0.00,0.00,0,0,0,0,0,0,0,0,0.00,0.00,0.00,0.00,0.00,0,0,0,    D68F
21522,HOVER,UPD,1500,1500,1500,0,1000,1000,1000,0,0.00,0.00,0.00,0.00,0.00,0.00,0.00,0.00,0,0,0,0,0,0,0,0,0.00,0.00,0.00,0.00,0.00,100,400,500,    8784
21543,HOVER,UPD,1500,1500,1500,0,1000,1000,1000,0,0.00,0.00,0.00,0.00,0.00,0.00,0.00,0.00,0,0,0,0,0,0,0,0,0.00,0.00,0.00,0.00,0.00,100,400,500,    345A
21554,RECV,WR,996,993,993,-1410,173,173,173,-1464,0.00,0.00,0.00,0.00,0.00,0.00,0.00,0.00,0,0,0,0,0,0,0,0,0.00,0.00,0.00,0.00,0.00,0,0,0,    67CF
21569,RECV,WR,996,993,993,192,173,173,173,-1464,0.00,0.00,0.00,0.00,0.00,0.00,0.00,0.00,0,0,0,0,0,0,0,0,0.00,0.00,0.00,0.00,0.00,0,0,0,    C8E2
21580,HOVER,UPD,1500,1500,1500,0,1000,1000,1000,0,0.00,0.00,0.00,0.00,0.00,0.00,0.00,0.00,0,0,0,0,0,0,0,0,0.00,0.00,0.00,0.00,0.00,100,400,500,    766F
21580,SDIST,UPD,0,0,0,31,0,0,0,0,20.66,15.49,450.00,424.18,41.72,31.29,450.00,397.85,425,15,0,0,400,31,0,0,0.00,0.00,0.00,0.00,0.00,0,0,0,    B3D0
21607,HOVER,UPD,1500,1500,1500,0,1000,1000,1000,0,0.00,0.00,0.00,0.00,0.00,0.00,0.00,0.00,0,0,0,0,0,0,0,0,0.00,0.00,0.00,0.00,0.00,100,400,500,    AAE6
21618,RECV,WR,996,993,993,-1410,173,173,173,-1464,0.00,0.00,0.00,0.00,0.00,0.00,0.00,0.00,0,0,0,0,0,0,0,0,0.00,0.00,0.00,0.00,0.00,0,0,0,    9527
21633,RECV,WR,996,993,993,192,173,173,173,-1464,0.00,0.00,0.00,0.00,0.00,0.00,0.00,0.00,0,0,0,0,0,0,0,0,0.00,0.00,0.00,0.00,0.00,0,0,0,    63BF
21644,HOVER,UPD,1500,1500,1500,0,1000,1000,1000,0,0.00,0.00,0.00,0.00,0.00,0.00,0.00,0.00,0,0,0,0,0,0,0,0,0.00,0.00,0.00,0.00,0.00,100,400,500,    FFA5
21660,SDIST,UPD,0,0,0,31,0,0,0,0,20.64,15.48,450.00,424.20,41.59,31.20,450.00,398.01,425,15,0,0,400,31,0,0,0.00,0.00,0.00,0.00,0.00,0,0,0,    B0EA
21671,RECV,WR,996,993,993,-1410,173,173,173,-1464,0.00,0.00,0.00,0.00,0.00,0.00,0.00,0.00,0,0,0,0,0,0,0,0,0.00,0.00,0.00,0.00,0.00,0,0,0,    EEA6
21682,HOVER,UPD,1500,1500,1500,0,1000,1000,1000,0,0.00,0.00,0.00,0.00,0.00,0.00,0.00,0.00,0,0,0,0,0,0,0,0,0.00,0.00,0.00,0.00,0.00,100,400,500,    5E98
21692,RECV,WR,996,993,993,192,173,173,173,-1464,0.00,0.00,0.00,0.00,0.00,0.00,0.00,0.00,0,0,0,0,0,0,0,0,0.00,0.00,0.00,0.00,0.00,0,0,0,    C65A
21719,HOVER,UPD,1500,1500,1500,0,1000,1000,1000,0,0.00,0.00,0.00,0.00,0.00,0.00,0.00,0.00,0,0,0,0,0,0,0,0,0.00,0.00,0.00,0.00,0.00,100,400,500,    AA03
21738,SDIST,UPD,0,0,0,31,0,0,0,0,20.59,15.45,450.00,424.26,41.48,31.11,450.00,398.14,426,15,0,0,400,31,0,0,0.00,0.00,0.00,0.00,0.00,0,0,0,    28B1
21749,RECV,WR,996,993,993,-1410,173,173,173,-1464,0.00,0.00,0.00,0.00,0.00,0.00,0.00,0.00,0,0,0,0,0,0,0,0,0.00,0.00,0.00,0.00,0.00,0,0,0,    16BF
21760,HOVER,UPD,1500,1500,1500,0,1000,1000,1000,0,0.00,0.00,0.00,0.00,0.00,0.00,0.00,0.00,0,0,0,0,0,0,0,0,0.00,0.00,0.00,0.00,0.00,100,400,500,    6A4A
21770,RECV,WR,996,993,993,192,173,173,173,-1464,0.00,0.00,0.00,0.00,0.00,0.00,0.00,0.00,0,0,0,0,0,0,0,0,0.00,0.00,0.00,0.00,0.00,0,0,0,    C860
21787,HOVER,UPD,1500,1500,1500,0,1000,1000,1000,0,0.00,0.00,0.00,0.00,0.00,0.00,0.00,0.00,0,0,0,0,0,0,0,0,0.00,0.00,0.00,0.00,0.00,100,400,500,    7312
21808,HOVER,UPD,1500,1500,1500,0,1000,1000,1000,0,0.00,0.00,0.00,0.00,0.00,0.00,0.00,0.00,0,0,0,0,0,0,0,0,0.00,0.00,0.00,0.00,0.00,100,400,500,     C47
21819,RECV,WR,996,993,993,-1410,173,173,173,-1464,0.00,0.00,0.00,0.00,0.00,0.00,0.00,0.00,0,0,0,0,0,0,0,0,0.00,0.00,0.00,0.00,0.00,0,0,0,    9C24
21834,RECV,WR,996,993,993,192,173,173,173,-1464,0.00,0.00,0.00,0.00,0.00,0.00,0.00,0.00,0,0,0,0,0,0,0,0,0.00,0.00,0.00,0.00,0.00,0,0,0,    2285
21845,HOVER,UPD,1500,1500,1500,0,1000,1000,1000,0,0.00,0.00,0.00,0.00,0.00,0.00,0.00,0.00,0,0,0,0,0,0,0,0,0.00,0.00,0.00,0.00,0.00,100,400,500,    5995
21845,SDIST,UPD,0,0,0,31,0,0,0,0,20.55,15.41,450.00,424.31,41.92,31.44,450.00,397.60,426,15,0,0,390,31,0,0,0.00,0.00,0.00,0.00,0.00,0,0,0,    58AA
21872,HOVER,UPD,1500,1500,1500,0,1000,1000,1000,0,0.00,0.00,0.00,0.00,0.00,0.00,0.00,0.00,0,0,0,0,0,0,0,0,0.00,0.00,0.00,0.00,0.00,100,400,500,    92F6
21883,RECV,WR,996,993,993,-1410,173,173,173,-1464,0.00,0.00,0.00,0.00,0.00,0.00,0.00,0.00,0,0,0,0,0,0,0,0,0.00,0.00,0.00,0.00,0.00,0,0,0,    B367
21898,RECV,WR,996,993,993,192,173,173,173,-1464,0.00,0.00,0.00,0.00,0.00,0.00,0.00,0.00,0,0,0,0,0,0,0,0,0.00,0.00,0.00,0.00,0.00,0,0,0,    80EE
21909,HOVER,UPD,1500,1500,1500,0,1000,1000,1000,0,0.00,0.00,0.00,0.00,0.00,0.00,0.00,0.00,0,0,0,0,0,0,0,0,0.00,0.00,0.00,0.00,0.00,100,400,500,    F76D
21925,SDIST,UPD,0,0,0,31,0,0,0,0,20.58,15.44,450.00,424.27,41.78,31.34,450.00,397.77,423,15,0,0,400,31,0,0,0.00,0.00,0.00,0.00,0.00,0,0,0,    7B43
21936,RECV,WR,996,993,993,-1410,173,173,173,-1464,0.00,0.00,0.00,0.00,0.00,0.00,0.00,0.00,0,0,0,0,0,0,0,0,0.00,0.00,0.00,0.00,0.00,0,0,0,    6437
21947,HOVER,UPD,1500,1500,1500,0,1000,1000,1000,0,0.00,0.00,0.00,0.00,0.00,0.00,0.00,0.00,0,0,0,0,0,0,0,0,0.00,0.00,0.00,0.00,0.00,100,400,500,    FC47
21957,RECV,WR,996,993,993,192,173,173,173,-1464,0.00,0.00,0.00,0.00,0.00,0.00,0.00,0.00,0,0,0,0,0,0,0,0,0.00,0.00,0.00,0.00,0.00,0,0,0,    7BF5
21984,HOVER,UPD,1500,1500,1500,0,1000,1000,1000,0,0.00,0.00,0.00,0.00,0.00,0.00,0.00,0.00,0,0,0,0,0,0,0,0,0.00,0.00,0.00,0.00,0.00,100,400,500,    BE72
22005,HOVER,UPD,1500,1500,1500,0,1000,1000,1000,0,0.00,0.00,0.00,0.00,0.00,0.00,0.00,0.00,0,0,0,0,0,0,0,0,0.00,0.00,0.00,0.00,0.00,100,400,500,    995F
22016,RECV,WR,996,993,993,-1410,173,173,173,-1464,0.00,0.00,0.00,0.00,0.00,0.00,0.00,0.00,0,0,0,0,0,0,0,0,0.00,0.00,0.00,0.00,0.00,0,0,0,    A66E
22031,RECV,WR,996,993,993,192,173,173,173,-1464,0.00,0.00,0.00,0.00,0.00,0.00,0.00,0.00,0,0,0,0,0,0,0,0,0.00,0.00,0.00,0.00,0.00,0,0,0,    A126
22042,HOVER,UPD,1500,1500,1500,0,1000,1000,1000,0,0.00,0.00,0.00,0.00,0.00,0.00,0.00,0.00,0,0,0,0,0,0,0,0,0.00,0.00,0.00,0.00,0.00,100,400,500,    1ABC
22042,SDIST,UPD,0,0,0,31,0,0,0,0,20.54,15.41,450.00,424.32,41.66,31.24,450.00,397.93,426,15,0,0,400,31,0,0,0.00,0.00,0.00,0.00,0.00,0,0,0,    18F5
22069,HOVER,UPD,1500,1500,1500,0,1000,1000,1000,0,0.00,0.00,0.00,0.00,0.00,0.00,0.00,0.00,0,0,0,0,0,0,0,0,0.00,0.00,0.00,0.00,0.00,100,400,500,    74E8
22080,RECV,WR,996,993,993,-1410,173,173,173,-1464,0.00,0.00,0.00,0.00,0.00,0.00,0.00,0.00,0,0,0,0,0,0,0,0,0.00,0.00,0.00,0.00,0.00,0,0,0,    D8C2
22095,RECV,WR,996,993,993,192,173,173,173,-1464,0.00,0.00,0.00,0.00,0.00,0.00,0.00,0.00,0,0,0,0,0,0,0,0,0.00,0.00,0.00,0.00,0.00,0,0,0,    3F40
22106,HOVER,UPD,1500,1500,1500,0,1000,1000,1000,0,0.00,0.00,0.00,0.00,0.00,0.00,0.00,0.00,0,0,0,0,0,0,0,0,0.00,0.00,0.00,0.00,0.00,100,400,500,     925
22122,SDIST,UPD,0,0,0,31,0,0,0,0,20.52,15.39,450.00,424.35,42.09,31.57,450.00,397.39,425,15,0,0,390,31,0,0,0.00,0.00,0.00,0.00,0.00,0,0,0,    9BFE
22133,RECV,WR,996,993,993,-1410,173,173,173,-1464,0.00,0.00,0.00,0.00,0.00,0.00,0.00,0.00,0,0,0,0,0,0,0,0,0.00,0.00,0.00,0.00,0.00,0,0,0,    AF75
22144,HOVER,UPD,1500,1500,1500,0,1000,1000,1000,0,0.00,0.00,0.00,0.00,0.00,0.00,0.00,0.00,0,0,0,0,0,0,0,0,0.00,0.00,0.00,0.00,0.00,100,400,500,    69CE
22154,RECV,WR,996,993,993,192,173,173,173,-1464,0.00,0.00,0.00,0.00,0.00,0.00,0.00,0.00,0,0,0,0,0,0,0,0,0.00,0.00,0.00,0.00,0.00,0,0,0,    254B
22181,HOVER,UPD,1500,1500,1500,0,1000,1000,1000,0,0.00,0.00,0.00,0.00,0.00,0.00,0.00,0.00,0,0,0,0,0,0,0,0,0.00,0.00,0.00,0.00,0.00,100,400,500,    960B
22200,SDIST,UPD,0,0,0,31,0,0,0,0,20.51,15.38,450.00,424.37,41.94,31.45,450.00,397.58,425,15,0,0,400,31,0,0,0.00,0.00,0.00,0.00,0.00,0,0,0,    E83D
22211,RECV,WR,996,993,993,-1410,173,173,173,-1464,0.00,0.00,0.00,0.00,0.00,0.00,0.00,0.00,0,0,0,0,0,0,0,0,0.00,0.00,0.00,0.00,0.00,0,0,0,    3EC5
22222,HOVER,UPD,1500,1500,1500,0,1000,1000,1000,0,0.00,0.00,0.00,0.00,0.00,0.00,0.00,0.00,0,0,0,0,0,0,0,0,0.00,0.00,0.00,0.00,0.00,100,400,500,    11EF
22232,RECV,WR,996,993,993,192,173,173,173,-1464,0.00,0.00,0.00,0.00,0.00,0.00,0.00,0.00,0,0,0,0,0,0,0,0,0.00,0.00,0.00,0.00,0.00,0,0,0,    27E5
22249,HOVER,UPD,1500,1500,1500,0,1000,1000,1000,0,0.00,0.00,0.00,0.00,0.00,0.00,0.00,0.00,0,0,0,0,0,0,0,0,0.00,0.00,0.00,0.00,0.00,100,400,500,    7400
22270,HOVER,UPD,1500,1500,1500,0,1000,1000,1000,0,0.00,0.00,0.00,0.00,0.00,0.00,0.00,0.00,0,0,0,0,0,0,0,0,0.00,0.00,0.00,0.00,0.00,100,400,500,    BFF2
22281,RECV,WR,996,993,993,-1410,173,173,173,-1464,0.00,0.00,0.00,0.00,0.00,0.00,0.00,0.00,0,0,0,0,0,0,0,0,0.00,0.00,0.00,0.00,0.00,0,0,0,    E08E
22296,RECV,WR,996,993,993,192,173,173,173,-1464,0.00,0.00,0.00,0.00,0.00,0.00,0.00,0.00,0,0,0,0,0,0,0,0,0.00,0.00,0.00,0.00,0.00,0,0,0,    B983
22307,HOVER,UPD,1500,1500,1500,0,1000,1000,1000,0,0.00,0.00,0.00,0.00,0.00,0.00,0.00,0.00,0,0,0,0,0,0,0,0,0.00,0.00,0.00,0.00,0.00,100,400,500,    B1A8
22307,SDIST,UPD,0,0,0,31,0,0,0,0,20.54,15.41,450.00,424.32,41.80,31.35,450.00,397.75,423,15,0,0,400,31,0,0,0.00,0.00,0.00,0.00,0.00,0,0,0,    9B1E
22334,HOVER,UPD,1500,1500,1500,0,1000,1000,1000,0,0.00,0.00,0.00,0.00,0.00,0.00,0.00,0.00,0,0,0,0,0,0,0,0,0.00,0.00,0.00,0.00,0.00,100,400,500,    AC6B
22345,RECV,WR,996,993,993,-1410,173,173,173,-1464,0.00,0.00,0.00,0.00,0.00,0.00,0.00,0.00,0,0,0,0,0,0,0,0,0.00,0.00,0.00,0.00,0.00,0,0,0,    C5D9
22360,RECV,WR,996,993,993,192,173,173,173,-1464,0.00,0.00,0.00,0.00,0.00,0.00,0.00,0.00,0,0,0,0,0,0,0,0,0.00,0.00,0.00,0.00,0.00,0,0,0,    D0E8
22371,HOVER,UPD,1500,1500,1500,0,1000,1000,1000,0,0.00,0.00,0.00,0.00,0.00,0.00,0.00,0.00,0,0,0,0,0,0,0,0,0.00,0.00,0.00,0.00,0.00,100,400,500,    44D8
22387,SDIST,UPD,0,0,0,31,0,0,0,0,20.52,15.39,450.00,424.34,41.67,31.25,450.00,397.91,425,15,0,0,400,31,0,0,0.00,0.00,0.00,0.00,0.00,0,0,0,    CE42
22398,RECV,WR,996,993,993,-1410,173,173,173,-1464,0.00,0.00,0.00,0.00,0.00,0.00,0.00,0.00,0,0,0,0,0,0,0,0,0.00,0.00,0.00,0.00,0.00,0,0,0,    910F
22409,HOVER,UPD,1500,1500,1500,0,1000,1000,1000,0,0.00,0.00,0.00,0.00,0.00,0.00,0.00,0.00,0,0,0,0,0,0,0,0,0.00,0.00,0.00,0.00,0.00,100,400,500,    F8F5
22419,RECV,WR,996,993,993,192,173,173,173,-1464,0.00,0.00,0.00,0.00,0.00,0.00,0.00,0.00,0,0,0,0,0,0,0,0,0.00,0.00,0.00,0.00,0.00,0,0,0,    AF3E
22446,HOVER,UPD,1500,1500,1500,0,1000,1000,1000,0,0.00,0.00,0.00,0.00,0.00,0.00,0.00,0.00,0,0,0,0,0,0,0,0,0.00,0.00,0.00,0.00,0.00,100,400,500,    C677
22467,HOVER,UPD,1500,1500,1500,0,1000,1000,1000,0,0.00,0.00,0.00,0.00,0.00,0.00,0.00,0.00,0,0,0,0,0,0,0,0,0.00,0.00,0.00,0.00,0.00,100,400,500,    7E12
22478,RECV,WR,996,993,993,-1410,173,173,173,-1464,0.00,0.00,0.00,0.00,0.00,0.00,0.00,0.00,0,0,0,0,0,0,0,0,0.00,0.00,0.00,0.00,0.00,0,0,0,    D5F3
22493,SDIST,UPD,0,0,0,31,0,0,0,0,20.53,15.40,450.00,424.33,41.56,31.17,450.00,398.05,424,15,0,0,400,31,0,0,0.00,0.00,0.00,0.00,0.00,0,0,0,     BB2
22504,HOVER,UPD,1500,1500,1500,0,1000,1000,1000,0,0.00,0.00,0.00,0.00,0.00,0.00,0.00,0.00,0,0,0,0,0,0,0,0,0.00,0.00,0.00,0.00,0.00,100,400,500,    681E
22504,RECV,WR,996,993,993,192,173,173,173,-1464,0.00,0.00,0.00,0.00,0.00,0.00,0.00,0.00,0,0,0,0,0,0,0,0,0.00,0.00,0.00,0.00,0.00,0,0,0,    E1C9
22531,HOVER,UPD,1500,1500,1500,0,1000,1000,1000,0,0.00,0.00,0.00,0.00,0.00,0.00,0.00,0.00,0,0,0,0,0,0,0,0,0.00,0.00,0.00,0.00,0.00,100,400,500,    C82D
22552,HOVER,UPD,1500,1500,1500,0,1000,1000,1000,0,0.00,0.00,0.00,0.00,0.00,0.00,0.00,0.00,0,0,0,0,0,0,0,0,0.00,0.00,0.00,0.00,0.00,100,400,500,    10A3
22563,RECV,WR,996,993,993,-1410,173,173,173,-1464,0.00,0.00,0.00,0.00,0.00,0.00,0.00,0.00,0,0,0,0,0,0,0,0,0.00,0.00,0.00,0.00,0.00,0,0,0,    C42F
22578,RECV,WR,996,993,993,192,173,173,173,-1464,0.00,0.00,0.00,0.00,0.00,0.00,0.00,0.00,0,0,0,0,0,0,0,0,0.00,0.00,0.00,0.00,0.00,0,0,0,    BD45
22589,HOVER,UPD,1500,1500,1500,0,1000,1000,1000,0,0.00,0.00,0.00,0.00,0.00,0.00,0.00,0.00,0,0,0,0,0,0,0,0,0.00,0.00,0.00,0.00,0.00,100,400,500,    2101
22589,SDIST,UPD,0,0,0,31,0,0,0,0,20.52,15.39,450.00,424.35,41.45,31.09,450.00,398.18,425,15,0,0,400,31,0,0,0.00,0.00,0.00,0.00,0.00,0,0,0,    8F8B
22616,HOVER,UPD,1500,1500,1500,0,1000,1000,1000,0,0.00,0.00,0.00,0.00,0.00,0.00,0.00,0.00,0,0,0,0,0,0,0,0,0.00,0.00,0.00,0.00,0.00,100,400,500,    8E1F
22627,RECV,WR,996,993,993,-1410,173,173,173,-1464,0.00,0.00,0.00,0.00,0.00,0.00,0.00,0.00,0,0,0,0,0,0,0,0,0.00,0.00,0.00,0.00,0.00,0,0,0,    A792
22642,RECV,WR,996,993,993,192,173,173,173,-1464,0.00,0.00,0.00,0.00,0.00,0.00,0.00,0.00,0,0,0,0,0,0,0,0,0.00,0.00,0.00,0.00,0.00,0,0,0,    11C8
22653,HOVER,UPD,1500,1500,1500,0,1000,1000,1000,0,0.00,0.00,0.00,0.00,0.00,0.00,0.00,0.00,0,0,0,0,0,0,0,0,0.00,0.00,0.00,0.00,0.00,100,400,500,    66AC
22669,SDIST,UPD,0,0,0,31,0,0,0,0,20.53,15.39,450.00,424.34,41.36,31.02,450.00,398.30,424,15,0,0,400,31,0,0,0.00,0.00,0.00,0.00,0.00,0,0,0,    F346
22680,RECV,WR,996,993,993,-1410,173,173,173,-1464,0.00,0.00,0.00,0.00,0.00,0.00,0.00,0.00,0,0,0,0,0,0,0,0,0.00,0.00,0.00,0.00,0.00,0,0,0,    4875
22690,HOVER,UPD,1500,1500,1500,0,1000,1000,1000,0,0.00,0.00,0.00,0.00,0.00,0.00,0.00,0.00,0,0,0,0,0,0,0,0,0.00,0.00,0.00,0.00,0.00,100,400,500,    2499
22701,RECV,WR,996,993,993,192,173,173,173,-1464,0.00,0.00,0.00,0.00,0.00,0.00,0.00,0.00,0,0,0,0,0,0,0,0,0.00,0.00,0.00,0.00,0.00,0,0,0,    BA17
22728,HOVER,UPD,1500,1500,1500,0,1000,1000,1000,0,0.00,0.00,0.00,0.00,0.00,0.00,0.00,0.00,0,0,0,0,0,0,0,0,0.00,0.00,0.00,0.00,0.00,100,400,500,     337
22749,HOVER,UPD,1500,1500,1500,0,1000,1000,1000,0,0.00,0.00,0.00,0.00,0.00,0.00,0.00,0.00,0,0,0,0,0,0,0,0,0.00,0.00,0.00,0.00,0.00,100,400,500,    B0E9
22750,RECV,WR,996,993,993,-1410,173,173,173,-1464,0.00,0.00,0.00,0.00,0.00,0.00,0.00,0.00,0,0,0,0,0,0,0,0,0.00,0.00,0.00,0.00,0.00,0,0,0,    B54B
22749,SDIST,UPD,0,0,0,31,0,0,0,0,20.47,15.35,450.00,424.42,41.78,31.33,450.00,397.78,427,15,0,0,390,31,0,0,0.00,0.00,0.00,0.00,0.00,0,0,0,    2F3B
22781,RECV,WR,996,993,993,192,173,173,173,-1464,0.00,0.00,0.00,0.00,0.00,0.00,0.00,0.00,0,0,0,0,0,0,0,0,0.00,0.00,0.00,0.00,0.00,0,0,0,    40C8
22791,HOVER,UPD,1500,1500,1500,0,1000,1000,1000,0,0.00,0.00,0.00,0.00,0.00,0.00,0.00,0.00,0,0,0,0,0,0,0,0,0.00,0.00,0.00,0.00,0.00,100,400,500,    DFB3
22823,HOVER,UPD,1500,1500,1500,0,1000,1000,1000,0,0.00,0.00,0.00,0.00,0.00,0.00,0.00,0.00,0,0,0,0,0,0,0,0,0.00,0.00,0.00,0.00,0.00,100,400,500,    BDB4
22825,RECV,WR,996,993,993,-1410,173,173,173,-1464,0.00,0.00,0.00,0.00,0.00,0.00,0.00,0.00,0,0,0,0,0,0,0,0,0.00,0.00,0.00,0.00,0.00,0,0,0,    76F2
22849,RECV,WR,996,993,993,192,173,173,173,-1464,0.00,0.00,0.00,0.00,0.00,0.00,0.00,0.00,0,0,0,0,0,0,0,0,0.00,0.00,0.00,0.00,0.00,0,0,0,    FAE9
22860,HOVER,UPD,1500,1500,1500,0,1000,1000,1000,0,0.00,0.00,0.00,0.00,0.00,0.00,0.00,0.00,0,0,0,0,0,0,0,0,0.00,0.00,0.00,0.00,0.00,100,400,500,    E8F7
22871,SDIST,UPD,0,0,0,31,0,0,0,0,20.48,15.36,450.00,424.41,41.66,31.24,450.00,397.93,424,15,0,0,400,31,0,0,0.00,0.00,0.00,0.00,0.00,0,0,0,    D06E
22887,HOVER,UPD,1500,1500,1500,0,1000,1000,1000,0,0.00,0.00,0.00,0.00,0.00,0.00,0.00,0.00,0,0,0,0,0,0,0,0,0.00,0.00,0.00,0.00,0.00,100,400,500,    F1AF
22898,RECV,WR,996,993,993,-1410,173,173,173,-1464,0.00,0.00,0.00,0.00,0.00,0.00,0.00,0.00,0,0,0,0,0,0,0,0,0.00,0.00,0.00,0.00,0.00,0,0,0,    70CE
22913,RECV,WR,996,993,993,192,173,173,173,-1464,0.00,0.00,0.00,0.00,0.00,0.00,0.00,0.00,0,0,0,0,0,0,0,0,0.00,0.00,0.00,0.00,0.00,0,0,0,    31E9
22924,HOVER,UPD,1500,1500,1500,0,1000,1000,1000,0,0.00,0.00,0.00,0.00,0.00,0.00,0.00,0.00,0,0,0,0,0,0,0,0,0.00,0.00,0.00,0.00,0.00,100,400,500,    FB6E
22940,SDIST,UPD,0,0,0,31,0,0,0,0,20.42,15.31,450.00,424.48,41.55,31.16,450.00,398.07,427,15,0,0,400,31,0,0,0.00,0.00,0.00,0.00,0.00,0,0,0,    A90D
22951,RECV,WR,996,993,993,-1410,173,173,173,-1464,0.00,0.00,0.00,0.00,0.00,0.00,0.00,0.00,0,0,0,0,0,0,0,0,0.00,0.00,0.00,0.00,0.00,0,0,0,    BC48
22962,HOVER,UPD,1500,1500,1500,0,1000,1000,1000,0,0.00,0.00,0.00,0.00,0.00,0.00,0.00,0.00,0,0,0,0,0,0,0,0,0.00,0.00,0.00,0.00,0.00,100,400,500,    4D25
22972,RECV,WR,996,993,993,192,173,173,173,-1464,0.00,0.00,0.00,0.00,0.00,0.00,0.00,0.00,0,0,0,0,0,0,0,0,0.00,0.00,0.00,0.00,0.00,0,0,0,    9BAC
22999,HOVER,UPD,1500,1500,1500,0,1000,1000,1000,0,0.00,0.00,0.00,0.00,0.00,0.00,0.00,0.00,0,0,0,0,0,0,0,0,0.00,0.00,0.00,0.00,0.00,100,400,500,    F14A
23020,HOVER,UPD,1500,1500,1500,0,1000,1000,1000,0,0.00,0.00,0.00,0.00,0.00,0.00,0.00,0.00,0,0,0,0,0,0,0,0,0.00,0.00,0.00,0.00,0.00,100,400,500,    4D18
23031,RECV,WR,996,993,993,-1410,173,173,173,-1464,0.00,0.00,0.00,0.00,0.00,0.00,0.00,0.00,0,0,0,0,0,0,0,0,0.00,0.00,0.00,0.00,0.00,0,0,0,    FED5
23046,SDIST,UPD,0,0,0,31,0,0,0,0,20.45,15.34,450.00,424.44,41.45,31.08,450.00,398.19,423,15,0,0,400,31,0,0,0.00,0.00,0.00,0.00,0.00,0,0,0,    611B
23057,HOVER,UPD,1500,1500,1500,0,1000,1000,1000,0,0.00,0.00,0.00,0.00,0.00,0.00,0.00,0.00,0,0,0,0,0,0,0,0,0.00,0.00,0.00,0.00,0.00,100,400,500,    8DC0
23047,RECV,WR,996,993,993,192,173,173,173,-1464,0.00,0.00,0.00,0.00,0.00,0.00,0.00,0.00,0,0,0,0,0,0,0,0,0.00,0.00,0.00,0.00,0.00,0,0,0,    927F
23084,HOVER,UPD,1500,1500,1500,0,1000,1000,1000,0,0.00,0.00,0.00,0.00,0.00,0.00,0.00,0.00,0,0,0,0,0,0,0,0,0.00,0.00,0.00,0.00,0.00,100,400,500,     103
23105,HOVER,UPD,1500,1500,1500,0,1000,1000,1000,0,0.00,0.00,0.00,0.00,0.00,0.00,0.00,0.00,0,0,0,0,0,0,0,0,0.00,0.00,0.00,0.00,0.00,100,400,500,    ED5F
23116,RECV,WR,996,993,993,-1410,173,173,173,-1464,0.00,0.00,0.00,0.00,0.00,0.00,0.00,0.00,0,0,0,0,0,0,0,0,0.00,0.00,0.00,0.00,0.00,0,0,0,    9793
23131,RECV,WR,996,993,993,192,173,173,173,-1464,0.00,0.00,0.00,0.00,0.00,0.00,0.00,0.00,0,0,0,0,0,0,0,0,0.00,0.00,0.00,0.00,0.00,0,0,0,     1CB
23142,HOVER,UPD,1500,1500,1500,0,1000,1000,1000,0,0.00,0.00,0.00,0.00,0.00,0.00,0.00,0.00,0,0,0,0,0,0,0,0,0.00,0.00,0.00,0.00,0.00,100,400,500,    6EBC
23142,SDIST,UPD,0,0,0,31,0,0,0,0,20.44,15.33,450.00,424.45,41.36,31.02,450.00,398.31,425,15,0,0,400,31,0,0,0.00,0.00,0.00,0.00,0.00,0,0,0,    CE2E
23169,HOVER,UPD,1500,1500,1500,0,1000,1000,1000,0,0.00,0.00,0.00,0.00,0.00,0.00,0.00,0.00,0,0,0,0,0,0,0,0,0.00,0.00,0.00,0.00,0.00,100,400,500,      E8
23180,RECV,WR,996,993,993,-1410,173,173,173,-1464,0.00,0.00,0.00,0.00,0.00,0.00,0.00,0.00,0,0,0,0,0,0,0,0,0.00,0.00,0.00,0.00,0.00,0,0,0,    E93F
23195,RECV,WR,996,993,993,192,173,173,173,-1464,0.00,0.00,0.00,0.00,0.00,0.00,0.00,0.00,0,0,0,0,0,0,0,0,0.00,0.00,0.00,0.00,0.00,0,0,0,    9FAD
23206,HOVER,UPD,1500,1500,1500,0,1000,1000,1000,0,0.00,0.00,0.00,0.00,0.00,0.00,0.00,0.00,0,0,0,0,0,0,0,0,0.00,0.00,0.00,0.00,0.00,100,400,500,    F000
23222,SDIST,UPD,0,0,0,30,0,0,0,0,20.40,15.30,450.00,424.50,41.27,30.95,450.00,398.41,426,15,0,0,400,30,0,0,0.00,0.00,0.00,0.00,0.00,0,0,0,    5B6D
23233,RECV,WR,996,993,993,-1410,173,173,173,-1464,0.00,0.00,0.00,0.00,0.00,0.00,0.00,0.00,0,0,0,0,0,0,0,0,0.00,0.00,0.00,0.00,0.00,0,0,0,    1EFA
23244,HOVER,UPD,1500,1500,1500,0,1000,1000,1000,0,0.00,0.00,0.00,0.00,0.00,0.00,0.00,0.00,0,0,0,0,0,0,0,0,0.00,0.00,0.00,0.00,0.00,100,400,500,    90EB
23254,RECV,WR,996,993,993,192,173,173,173,-1464,0.00,0.00,0.00,0.00,0.00,0.00,0.00,0.00,0,0,0,0,0,0,0,0,0.00,0.00,0.00,0.00,0.00,0,0,0,    E5FB
23281,HOVER,UPD,1500,1500,1500,0,1000,1000,1000,0,0.00,0.00,0.00,0.00,0.00,0.00,0.00,0.00,0,0,0,0,0,0,0,0,0.00,0.00,0.00,0.00,0.00,100,400,500,    6F2E
23302,HOVER,UPD,1500,1500,1500,0,1000,1000,1000,0,0.00,0.00,0.00,0.00,0.00,0.00,0.00,0.00,0,0,0,0,0,0,0,0,0.00,0.00,0.00,0.00,0.00,100,400,500,    E822
23302,SDIST,UPD,0,0,0,31,0,0,0,0,20.44,15.33,450.00,424.45,41.67,31.25,450.00,397.91,423,15,0,0,390,31,0,0,0.00,0.00,0.00,0.00,0.00,0,0,0,    183E
23303,RECV,WR,996,993,993,-1410,173,173,173,-1464,0.00,0.00,0.00,0.00,0.00,0.00,0.00,0.00,0,0,0,0,0,0,0,0,0.00,0.00,0.00,0.00,0.00,0,0,0,    77B6
23335,HOVER,UPD,1500,1500,1500,0,1000,1000,1000,0,0.00,0.00,0.00,0.00,0.00,0.00,0.00,0.00,0,0,0,0,0,0,0,0,0.00,0.00,0.00,0.00,0.00,100,400,500,    2341
23346,RECV,WR,996,993,993,192,173,173,173,-1464,0.00,0.00,0.00,0.00,0.00,0.00,0.00,0.00,0,0,0,0,0,0,0,0,0.00,0.00,0.00,0.00,0.00,0,0,0,    E789
23372,HOVER,UPD,1500,1500,1500,0,1000,1000,1000,0,0.00,0.00,0.00,0.00,0.00,0.00,0.00,0.00,0,0,0,0,0,0,0,0,0.00,0.00,0.00,0.00,0.00,100,400,500,    A0A2
23393,HOVER,UPD,1500,1500,1500,0,1000,1000,1000,0,0.00,0.00,0.00,0.00,0.00,0.00,0.00,0.00,0,0,0,0,0,0,0,0,0.00,0.00,0.00,0.00,0.00,100,400,500,     40A
23404,RECV,WR,996,993,993,-1410,173,173,173,-1464,0.00,0.00,0.00,0.00,0.00,0.00,0.00,0.00,0,0,0,0,0,0,0,0,0.00,0.00,0.00,0.00,0.00,0,0,0,    BFE1
23414,SDIST,UPD,0,0,0,31,0,0,0,0,20.38,15.29,450.00,424.52,41.56,31.17,450.00,398.05,427,15,0,0,400,31,0,0,0.00,0.00,0.00,0.00,0.00,0,0,0,    8562
23425,RECV,WR,996,993,993,192,173,173,173,-1464,0.00,0.00,0.00,0.00,0.00,0.00,0.00,0.00,0,0,0,0,0,0,0,0,0.00,0.00,0.00,0.00,0.00,0,0,0,    1E1E
23436,HOVER,UPD,1500,1500,1500,0,1000,1000,1000,0,0.00,0.00,0.00,0.00,0.00,0.00,0.00,0.00,0,0,0,0,0,0,0,0,0.00,0.00,0.00,0.00,0.00,100,400,500,    3475
23468,HOVER,UPD,1500,1500,1500,0,1000,1000,1000,0,0.00,0.00,0.00,0.00,0.00,0.00,0.00,0.00,0,0,0,0,0,0,0,0,0.00,0.00,0.00,0.00,0.00,100,400,500,    F1A9
23470,RECV,WR,996,993,993,-1410,173,173,173,-1464,0.00,0.00,0.00,0.00,0.00,0.00,0.00,0.00,0,0,0,0,0,0,0,0,0.00,0.00,0.00,0.00,0.00,0,0,0,    3562
23494,RECV,WR,996,993,993,192,173,173,173,-1464,0.00,0.00,0.00,0.00,0.00,0.00,0.00,0.00,0,0,0,0,0,0,0,0,0.00,0.00,0.00,0.00,0.00,0,0,0,    4ABC
23505,HOVER,UPD,1500,1500,1500,0,1000,1000,1000,0,0.00,0.00,0.00,0.00,0.00,0.00,0.00,0.00,0,0,0,0,0,0,0,0,0.00,0.00,0.00,0.00,0.00,100,400,500,    E734
23516,SDIST,UPD,0,0,0,31,0,0,0,0,20.39,15.29,450.00,424.51,41.46,31.10,450.00,398.17,424,15,0,0,400,31,0,0,0.00,0.00,0.00,0.00,0.00,0,0,0,    C184
23532,HOVER,UPD,1500,1500,1500,0,1000,1000,1000,0,0.00,0.00,0.00,0.00,0.00,0.00,0.00,0.00,0,0,0,0,0,0,0,0,0.00,0.00,0.00,0.00,0.00,100,400,500,    2C57
23543,RECV,WR,996,993,993,-1410,173,173,173,-1464,0.00,0.00,0.00,0.00,0.00,0.00,0.00,0.00,0,0,0,0,0,0,0,0,0.00,0.00,0.00,0.00,0.00,0,0,0,    844D
23558,RECV,WR,996,993,993,192,173,173,173,-1464,0.00,0.00,0.00,0.00,0.00,0.00,0.00,0.00,0,0,0,0,0,0,0,0,0.00,0.00,0.00,0.00,0.00,0,0,0,    5739
23569,HOVER,UPD,1500,1500,1500,0,1000,1000,1000,0,0.00,0.00,0.00,0.00,0.00,0.00,0.00,0.00,0,0,0,0,0,0,0,0,0.00,0.00,0.00,0.00,0.00,100,400,500,     A83
23585,SDIST,UPD,0,0,0,31,0,0,0,0,20.38,15.29,450.00,424.52,41.37,31.03,450.00,398.28,425,15,0,0,400,31,0,0,0.00,0.00,0.00,0.00,0.00,0,0,0,    FD4A
23596,RECV,WR,996,993,993,-1410,173,173,173,-1464,0.00,0.00,0.00,0.00,0.00,0.00,0.00,0.00,0,0,0,0,0,0,0,0,0.00,0.00,0.00,0.00,0.00,0,0,0,    41CE
23607,HOVER,UPD,1500,1500,1500,0,1000,1000,1000,0,0.00,0.00,0.00,0.00,0.00,0.00,0.00,0.00,0,0,0,0,0,0,0,0,0.00,0.00,0.00,0.00,0.00,100,400,500,    CFC3
23617,RECV,WR,996,993,993,192,173,173,173,-1464,0.00,0.00,0.00,0.00,0.00,0.00,0.00,0.00,0,0,0,0,0,0,0,0,0.00,0.00,0.00,0.00,0.00,0,0,0,    36A0
23644,HOVER,UPD,1500,1500,1500,0,1000,1000,1000,0,0.00,0.00,0.00,0.00,0.00,0.00,0.00,0.00,0,0,0,0,0,0,0,0,0.00,0.00,0.00,0.00,0.00,100,400,500,    9A80
23665,HOVER,UPD,1500,1500,1500,0,1000,1000,1000,0,0.00,0.00,0.00,0.00,0.00,0.00,0.00,0.00,0,0,0,0,0,0,0,0,0.00,0.00,0.00,0.00,0.00,100,400,500,    22E5
23676,RECV,WR,996,993,993,-1410,173,173,173,-1464,0.00,0.00,0.00,0.00,0.00,0.00,0.00,0.00,0,0,0,0,0,0,0,0,0.00,0.00,0.00,0.00,0.00,0,0,0,    15F7
23691,SDIST,UPD,0,0,0,30,0,0,0,0,20.39,15.29,450.00,424.51,41.29,30.97,450.00,398.39,424,15,0,0,400,30,0,0,0.00,0.00,0.00,0.00,0.00,0,0,0,    A701
23702,HOVER,UPD,1500,1500,1500,0,1000,1000,1000,0,0.00,0.00,0.00,0.00,0.00,0.00,0.00,0.00,0,0,0,0,0,0,0,0,0.00,0.00,0.00,0.00,0.00,100,400,500,    E249
23692,RECV,WR,996,993,993,192,173,173,173,-1464,0.00,0.00,0.00,0.00,0.00,0.00,0.00,0.00,0,0,0,0,0,0,0,0,0.00,0.00,0.00,0.00,0.00,0,0,0,    F7FC
23729,HOVER,UPD,1500,1500,1500,0,1000,1000,1000,0,0.00,0.00,0.00,0.00,0.00,0.00,0.00,0.00,0,0,0,0,0,0,0,0,0.00,0.00,0.00,0.00,0.00,100,400,500,    8C1D
23750,HOVER,UPD,1500,1500,1500,0,1000,1000,1000,0,0.00,0.00,0.00,0.00,0.00,0.00,0.00,0.00,0,0,0,0,0,0,0,0,0.00,0.00,0.00,0.00,0.00,100,400,500,    4C54
23761,RECV,WR,996,993,993,-1410,173,173,173,-1464,0.00,0.00,0.00,0.00,0.00,0.00,0.00,0.00,0,0,0,0,0,0,0,0,0.00,0.00,0.00,0.00,0.00,0,0,0,    55C4
23776,RECV,WR,996,993,993,192,173,173,173,-1464,0.00,0.00,0.00,0.00,0.00,0.00,0.00,0.00,0,0,0,0,0,0,0,0,0.00,0.00,0.00,0.00,0.00,0,0,0,    24DB
23787,HOVER,UPD,1500,1500,1500,0,1000,1000,1000,0,0.00,0.00,0.00,0.00,0.00,0.00,0.00,0.00,0,0,0,0,0,0,0,0,0.00,0.00,0.00,0.00,0.00,100,400,500,    1637
23787,SDIST,UPD,0,0,0,30,0,0,0,0,20.38,15.29,450.00,424.52,41.22,30.91,450.00,398.48,425,15,0,0,400,30,0,0,0.00,0.00,0.00,0.00,0.00,0,0,0,    BC33
23814,HOVER,UPD,1500,1500,1500,0,1000,1000,1000,0,0.00,0.00,0.00,0.00,0.00,0.00,0.00,0.00,0,0,0,0,0,0,0,0,0.00,0.00,0.00,0.00,0.00,100,400,500,    CC55
23825,RECV,WR,996,993,993,-1410,173,173,173,-1464,0.00,0.00,0.00,0.00,0.00,0.00,0.00,0.00,0,0,0,0,0,0,0,0,0.00,0.00,0.00,0.00,0.00,0,0,0,     736
23840,RECV,WR,996,993,993,192,173,173,173,-1464,0.00,0.00,0.00,0.00,0.00,0.00,0.00,0.00,0,0,0,0,0,0,0,0,0.00,0.00,0.00,0.00,0.00,0,0,0,    73A2
23851,HOVER,UPD,1500,1500,1500,0,1000,1000,1000,0,0.00,0.00,0.00,0.00,0.00,0.00,0.00,0.00,0,0,0,0,0,0,0,0,0.00,0.00,0.00,0.00,0.00,100,400,500,    24E6
23867,SDIST,UPD,0,0,0,30,0,0,0,0,20.35,15.26,450.00,424.56,41.15,30.86,450.00,398.57,426,15,0,0,400,30,0,0,0.00,0.00,0.00,0.00,0.00,0,0,0,    A6E1
23878,RECV,WR,996,993,993,-1410,173,173,173,-1464,0.00,0.00,0.00,0.00,0.00,0.00,0.00,0.00,0,0,0,0,0,0,0,0,0.00,0.00,0.00,0.00,0.00,0,0,0,    9578
23888,HOVER,UPD,1500,1500,1500,0,1000,1000,1000,0,0.00,0.00,0.00,0.00,0.00,0.00,0.00,0.00,0,0,0,0,0,0,0,0,0.00,0.00,0.00,0.00,0.00,100,400,500,    7E14
23899,RECV,WR,996,993,993,192,173,173,173,-1464,0.00,0.00,0.00,0.00,0.00,0.00,0.00,0.00,0,0,0,0,0,0,0,0,0.00,0.00,0.00,0.00,0.00,0,0,0,    1CDD
23926,HOVER,UPD,1500,1500,1500,0,1000,1000,1000,0,0.00,0.00,0.00,0.00,0.00,0.00,0.00,0.00,0,0,0,0,0,0,0,0,0.00,0.00,0.00,0.00,0.00,100,400,500,    2ABC
23947,HOVER,UPD,1500,1500,1500,0,1000,1000,1000,0,0.00,0.00,0.00,0.00,0.00,0.00,0.00,0.00,0,0,0,0,0,0,0,0,0.00,0.00,0.00,0.00,0.00,100,400,500,    9962
23947,SDIST,UPD,0,0,0,31,0,0,0,0,20.36,15.27,450.00,424.55,41.53,31.15,450.00,398.09,424,15,0,0,390,31,0,0,0.00,0.00,0.00,0.00,0.00,0,0,0,    7FDA
23948,RECV,WR,996,993,993,-1410,173,173,173,-1464,0.00,0.00,0.00,0.00,0.00,0.00,0.00,0.00,0,0,0,0,0,0,0,0,0.00,0.00,0.00,0.00,0.00,0,0,0,    FC34
23980,HOVER,UPD,1500,1500,1500,0,1000,1000,1000,0,0.00,0.00,0.00,0.00,0.00,0.00,0.00,0.00,0,0,0,0,0,0,0,0,0.00,0.00,0.00,0.00,0.00,100,400,500,     DF7
23991,RECV,WR,996,993,993,192,173,173,173,-1464,0.00,0.00,0.00,0.00,0.00,0.00,0.00,0.00,0,0,0,0,0,0,0,0,0.00,0.00,0.00,0.00,0.00,0,0,0,    98EE
24017,HOVER,UPD,1500,1500,1500,0,1000,1000,1000,0,0.00,0.00,0.00,0.00,0.00,0.00,0.00,0.00,0,0,0,0,0,0,0,0,0.00,0.00,0.00,0.00,0.00,100,400,500,    9396
24038,HOVER,UPD,1500,1500,1500,0,1000,1000,1000,0,0.00,0.00,0.00,0.00,0.00,0.00,0.00,0.00,0,0,0,0,0,0,0,0,0.00,0.00,0.00,0.00,0.00,100,400,500,    2B62
24038,SDIST,UPD,0,0,0,31,0,0,0,0,20.40,15.30,450.00,424.51,41.43,31.08,450.00,398.21,423,15,0,0,400,31,0,0,0.00,0.00,0.00,0.00,0.00,0,0,0,    96E5
24049,RECV,WR,996,993,993,-1410,173,173,173,-1464,0.00,0.00,0.00,0.00,0.00,0.00,0.00,0.00,0,0,0,0,0,0,0,0,0.00,0.00,0.00,0.00,0.00,0,0,0,    60C4
24071,HOVER,UPD,1500,1500,1500,0,1000,1000,1000,0,0.00,0.00,0.00,0.00,0.00,0.00,0.00,0.00,0,0,0,0,0,0,0,0,0.00,0.00,0.00,0.00,0.00,100,400,500,    A810
24082,RECV,WR,996,993,993,192,173,173,173,-1464,0.00,0.00,0.00,0.00,0.00,0.00,0.00,0.00,0,0,0,0,0,0,0,0,0.00,0.00,0.00,0.00,0.00,0,0,0,    EC65
24108,HOVER,UPD,1500,1500,1500,0,1000,1000,1000,0,0.00,0.00,0.00,0.00,0.00,0.00,0.00,0.00,0,0,0,0,0,0,0,0,0.00,0.00,0.00,0.00,0.00,100,400,500,    A6DB
24129,HOVER,UPD,1500,1500,1500,0,1000,1000,1000,0,0.00,0.00,0.00,0.00,0.00,0.00,0.00,0.00,0,0,0,0,0,0,0,0,0.00,0.00,0.00,0.00,0.00,100,400,500,    1EBE
24140,RECV,WR,996,993,993,-1410,173,173,173,-1464,0.00,0.00,0.00,0.00,0.00,0.00,0.00,0.00,0,0,0,0,0,0,0,0,0.00,0.00,0.00,0.00,0.00,0,0,0,     996
24151,SDIST,UPD,0,0,0,31,0,0,0,0,20.41,15.30,450.00,424.49,41.83,31.37,450.00,397.72,424,15,0,0,390,31,0,0,0.00,0.00,0.00,0.00,0.00,0,0,0,    685F
24162,RECV,WR,996,993,993,192,173,173,173,-1464,0.00,0.00,0.00,0.00,0.00,0.00,0.00,0.00,0,0,0,0,0,0,0,0,0.00,0.00,0.00,0.00,0.00,0,0,0,    A954
24172,HOVER,UPD,1500,1500,1500,0,1000,1000,1000,0,0.00,0.00,0.00,0.00,0.00,0.00,0.00,0.00,0,0,0,0,0,0,0,0,0.00,0.00,0.00,0.00,0.00,100,400,500,    386A
24204,HOVER,UPD,1500,1500,1500,0,1000,1000,1000,0,0.00,0.00,0.00,0.00,0.00,0.00,0.00,0.00,0,0,0,0,0,0,0,0,0.00,0.00,0.00,0.00,0.00,100,400,500,    8EBD
24206,RECV,WR,996,993,993,-1410,173,173,173,-1464,0.00,0.00,0.00,0.00,0.00,0.00,0.00,0.00,0,0,0,0,0,0,0,0,0.00,0.00,0.00,0.00,0.00,0,0,0,     A76
24230,RECV,WR,996,993,993,192,173,173,173,-1464,0.00,0.00,0.00,0.00,0.00,0.00,0.00,0.00,0,0,0,0,0,0,0,0,0.00,0.00,0.00,0.00,0.00,0,0,0,    3E04
24241,HOVER,UPD,1500,1500,1500,0,1000,1000,1000,0,0.00,0.00,0.00,0.00,0.00,0.00,0.00,0.00,0,0,0,0,0,0,0,0,0.00,0.00,0.00,0.00,0.00,100,400,500,    660E
24252,SDIST,UPD,0,0,0,31,0,0,0,0,20.40,15.30,450.00,424.51,41.71,31.28,450.00,397.87,425,15,0,0,400,31,0,0,0.00,0.00,0.00,0.00,0.00,0,0,0,    121E
24268,HOVER,UPD,1500,1500,1500,0,1000,1000,1000,0,0.00,0.00,0.00,0.00,0.00,0.00,0.00,0.00,0,0,0,0,0,0,0,0,0.00,0.00,0.00,0.00,0.00,100,400,500,    630A
24279,RECV,WR,996,993,993,-1410,173,173,173,-1464,0.00,0.00,0.00,0.00,0.00,0.00,0.00,0.00,0,0,0,0,0,0,0,0,0.00,0.00,0.00,0.00,0.00,0,0,0,    C9C3
24294,RECV,WR,996,993,993,192,173,173,173,-1464,0.00,0.00,0.00,0.00,0.00,0.00,0.00,0.00,0,0,0,0,0,0,0,0,0.00,0.00,0.00,0.00,0.00,0,0,0,    A062
24305,HOVER,UPD,1500,1500,1500,0,1000,1000,1000,0,0.00,0.00,0.00,0.00,0.00,0.00,0.00,0.00,0,0,0,0,0,0,0,0,0.00,0.00,0.00,0.00,0.00,100,400,500,    7597
24321,SDIST,UPD,0,0,0,31,0,0,0,0,20.39,15.29,450.00,424.52,42.11,31.58,450.00,397.37,425,15,0,0,390,31,0,0,0.00,0.00,0.00,0.00,0.00,0,0,0,     E90
24332,RECV,WR,996,993,993,-1410,173,173,173,-1464,0.00,0.00,0.00,0.00,0.00,0.00,0.00,0.00,0,0,0,0,0,0,0,0,0.00,0.00,0.00,0.00,0.00,0,0,0,    A380
24343,HOVER,UPD,1500,1500,1500,0,1000,1000,1000,0,0.00,0.00,0.00,0.00,0.00,0.00,0.00,0.00,0,0,0,0,0,0,0,0,0.00,0.00,0.00,0.00,0.00,100,400,500,    C3DC
24353,RECV,WR,996,993,993,192,173,173,173,-1464,0.00,0.00,0.00,0.00,0.00,0.00,0.00,0.00,0,0,0,0,0,0,0,0,0.00,0.00,0.00,0.00,0.00,0,0,0,    6774
24380,HOVER,UPD,1500,1500,1500,0,1000,1000,1000,0,0.00,0.00,0.00,0.00,0.00,0.00,0.00,0.00,0,0,0,0,0,0,0,0,0.00,0.00,0.00,0.00,0.00,100,400,500,    81E9
24401,HOVER,UPD,1500,1500,1500,0,1000,1000,1000,0,0.00,0.00,0.00,0.00,0.00,0.00,0.00,0.00,0,0,0,0,0,0,0,0,0.00,0.00,0.00,0.00,0.00,100,400,500,    EAFB
24412,RECV,WR,996,993,993,-1410,173,173,173,-1464,0.00,0.00,0.00,0.00,0.00,0.00,0.00,0.00,0,0,0,0,0,0,0,0,0.00,0.00,0.00,0.00,0.00,0,0,0,    42A8
24427,SDIST,UPD,0,0,0,39,0,0,0,0,20.40,15.30,450.00,424.51,52.93,39.69,450.00,383.84,424,15,0,0,200,39,0,0,0.00,0.00,0.00,0.00,0.00,0,0,0,    733D
24438,HOVER,UPD,1500,1500,1500,0,1000,1000,1000,0,0.00,0.00,0.00,0.00,0.00,0.00,0.00,0.00,0,0,0,0,0,0,0,0,0.00,0.00,0.00,0.00,0.00,100,400,500,    2109
24428,RECV,WR,996,993,993,192,173,173,173,-1464,0.00,0.00,0.00,0.00,0.00,0.00,0.00,0.00,0,0,0,0,0,0,0,0,0.00,0.00,0.00,0.00,0.00,0,0,0,    53A9
24465,HOVER,UPD,1500,1500,1500,0,1000,1000,1000,0,0.00,0.00,0.00,0.00,0.00,0.00,0.00,0.00,0,0,0,0,0,0,0,0,0.00,0.00,0.00,0.00,0.00,100,400,500,    BA2D
24486,HOVER,UPD,1500,1500,1500,0,1000,1000,1000,0,0.00,0.00,0.00,0.00,0.00,0.00,0.00,0.00,0,0,0,0,0,0,0,0,0.00,0.00,0.00,0.00,0.00,100,400,500,    75D5
24497,RECV,WR,996,993,993,-1410,173,173,173,-1464,0.00,0.00,0.00,0.00,0.00,0.00,0.00,0.00,0,0,0,0,0,0,0,0,0.00,0.00,0.00,0.00,0.00,0,0,0,    FCB4
24512,RECV,WR,996,993,993,192,173,173,173,-1464,0.00,0.00,0.00,0.00,0.00,0.00,0.00,0.00,0,0,0,0,0,0,0,0,0.00,0.00,0.00,0.00,0.00,0,0,0,    9F79
24523,HOVER,UPD,1500,1500,1500,0,1000,1000,1000,0,0.00,0.00,0.00,0.00,0.00,0.00,0.00,0.00,0,0,0,0,0,0,0,0,0.00,0.00,0.00,0.00,0.00,100,400,500,    C2E4
24523,SDIST,UPD,0,0,0,75,0,0,0,0,20.45,15.33,450.00,424.44,100.00,75.00,450.00,324.64,422,15,0,0,150,75,0,0,0.00,0.00,0.00,0.00,0.00,0,0,0,    73BF
24550,HOVER,UPD,1500,1500,1500,0,1000,1000,1000,0,0.00,0.00,0.00,0.00,0.00,0.00,0.00,0.00,0,0,0,0,0,0,0,0,0.00,0.00,0.00,0.00,0.00,100,400,500,    D49C
24561,RECV,WR,996,993,993,-1410,173,173,173,-1464,0.00,0.00,0.00,0.00,0.00,0.00,0.00,0.00,0,0,0,0,0,0,0,0,0.00,0.00,0.00,0.00,0.00,0,0,0,    90CB
24576,RECV,WR,996,993,993,192,173,173,173,-1464,0.00,0.00,0.00,0.00,0.00,0.00,0.00,0.00,0,0,0,0,0,0,0,0,0.00,0.00,0.00,0.00,0.00,0,0,0,     EBF
24587,HOVER,UPD,1500,1500,1500,0,1000,1000,1000,0,0.00,0.00,0.00,0.00,0.00,0.00,0.00,0.00,0,0,0,0,0,0,0,0,0.00,0.00,0.00,0.00,0.00,100,400,500,    8EFF
24603,SDIST,UPD,0,0,0,75,0,0,0,0,20.58,15.43,450.00,424.28,100.00,75.00,450.00,245.24,418,15,0,0,190,75,0,0,0.00,0.00,0.00,0.00,0.00,0,0,0,    7191
24614,RECV,WR,996,993,993,-1410,173,173,173,-1464,0.00,0.00,0.00,0.00,0.00,0.00,0.00,0.00,0,0,0,0,0,0,0,0,0.00,0.00,0.00,0.00,0.00,0,0,0,    623D
24625,HOVER,UPD,1500,1500,1500,0,1000,1000,1000,0,0.00,0.00,0.00,0.00,0.00,0.00,0.00,0.00,0,0,0,0,0,0,0,0,0.00,0.00,0.00,0.00,0.00,100,400,500,    3CB3
24635,RECV,WR,996,993,993,192,173,173,173,-1464,0.00,0.00,0.00,0.00,0.00,0.00,0.00,0.00,0,0,0,0,0,0,0,0,0.00,0.00,0.00,0.00,0.00,0,0,0,    C53D
24662,HOVER,UPD,1500,1500,1500,0,1000,1000,1000,0,0.00,0.00,0.00,0.00,0.00,0.00,0.00,0.00,0,0,0,0,0,0,0,0,0.00,0.00,0.00,0.00,0.00,100,400,500,    BF50
24683,HOVER,UPD,1500,1500,1500,0,1000,1000,1000,0,0.00,0.00,0.00,0.00,0.00,0.00,0.00,0.00,0,0,0,0,0,0,0,0,0.00,0.00,0.00,0.00,0.00,100,400,500,    1BF8
24683,SDIST,UPD,0,0,0,75,0,0,0,0,20.81,15.60,450.00,423.99,100.00,75.00,450.00,241.65,414,15,0,0,240,75,0,0,0.00,0.00,0.00,0.00,0.00,0,0,0,    401D
24694,RECV,WR,996,993,993,-1410,173,173,173,-1464,0.00,0.00,0.00,0.00,0.00,0.00,0.00,0.00,0,0,0,0,0,0,0,0,0.00,0.00,0.00,0.00,0.00,0,0,0,    A4A5
24716,HOVER,UPD,1500,1500,1500,0,1000,1000,1000,0,0.00,0.00,0.00,0.00,0.00,0.00,0.00,0.00,0,0,0,0,0,0,0,0,0.00,0.00,0.00,0.00,0.00,100,400,500,    EFF2
24727,RECV,WR,996,993,993,192,173,173,173,-1464,0.00,0.00,0.00,0.00,0.00,0.00,0.00,0.00,0,0,0,0,0,0,0,0,0.00,0.00,0.00,0.00,0.00,0,0,0,    C74F
24753,HOVER,UPD,1500,1500,1500,0,1000,1000,1000,0,0.00,0.00,0.00,0.00,0.00,0.00,0.00,0.00,0,0,0,0,0,0,0,0,0.00,0.00,0.00,0.00,0.00,100,400,500,     741
24774,HOVER,UPD,1500,1500,1500,0,1000,1000,1000,0,0.00,0.00,0.00,0.00,0.00,0.00,0.00,0.00,0,0,0,0,0,0,0,0,0.00,0.00,0.00,0.00,0.00,100,400,500,     2D4
24785,RECV,WR,996,993,993,-1410,173,173,173,-1464,0.00,0.00,0.00,0.00,0.00,0.00,0.00,0.00,0,0,0,0,0,0,0,0,0.00,0.00,0.00,0.00,0.00,0,0,0,    4471
24796,SDIST,UPD,0,0,0,75,0,0,0,0,21.22,15.92,450.00,423.47,100.00,75.00,450.00,258.17,408,15,0,0,280,75,0,0,0.00,0.00,0.00,0.00,0.00,0,0,0,    E826
24806,RECV,WR,996,993,993,192,173,173,173,-1464,0.00,0.00,0.00,0.00,0.00,0.00,0.00,0.00,0,0,0,0,0,0,0,0,0.00,0.00,0.00,0.00,0.00,0,0,0,    11F9
24817,HOVER,UPD,1500,1500,1500,0,1000,1000,1000,0,0.00,0.00,0.00,0.00,0.00,0.00,0.00,0.00,0,0,0,0,0,0,0,0,0.00,0.00,0.00,0.00,0.00,100,400,500,    8740
24849,HOVER,UPD,1500,1500,1500,0,1000,1000,1000,0,0.00,0.00,0.00,0.00,0.00,0.00,0.00,0.00,0,0,0,0,0,0,0,0,0.00,0.00,0.00,0.00,0.00,100,400,500,    429C
24851,RECV,WR,996,993,993,-1410,173,173,173,-1464,0.00,0.00,0.00,0.00,0.00,0.00,0.00,0.00,0,0,0,0,0,0,0,0,0.00,0.00,0.00,0.00,0.00,0,0,0,    C8C8
24875,RECV,WR,996,993,993,192,173,173,173,-1464,0.00,0.00,0.00,0.00,0.00,0.00,0.00,0.00,0,0,0,0,0,0,0,0,0.00,0.00,0.00,0.00,0.00,0,0,0,     1F0
24886,HOVER,UPD,1500,1500,1500,0,1000,1000,1000,0,0.00,0.00,0.00,0.00,0.00,0.00,0.00,0.00,0,0,0,0,0,0,0,0,0.00,0.00,0.00,0.00,0.00,100,400,500,    6B68
24897,SDIST,UPD,0,0,0,75,0,0,0,0,22.13,16.59,450.00,422.34,100.00,75.00,450.00,280.58,396,16,0,0,310,75,0,0,0.00,0.00,0.00,0.00,0.00,0,0,0,    4B7E
24913,HOVER,UPD,1500,1500,1500,0,1000,1000,1000,0,0.00,0.00,0.00,0.00,0.00,0.00,0.00,0.00,0,0,0,0,0,0,0,0,0.00,0.00,0.00,0.00,0.00,100,400,500,    9F62
24924,RECV,WR,996,993,993,-1410,173,173,173,-1464,0.00,0.00,0.00,0.00,0.00,0.00,0.00,0.00,0,0,0,0,0,0,0,0,0.00,0.00,0.00,0.00,0.00,0,0,0,    BA4C
24939,RECV,WR,996,993,993,192,173,173,173,-1464,0.00,0.00,0.00,0.00,0.00,0.00,0.00,0.00,0,0,0,0,0,0,0,0,0.00,0.00,0.00,0.00,0.00,0,0,0,    E6AA
24950,HOVER,UPD,1500,1500,1500,0,1000,1000,1000,0,0.00,0.00,0.00,0.00,0.00,0.00,0.00,0.00,0,0,0,0,0,0,0,0,0.00,0.00,0.00,0.00,0.00,100,400,500,    CA21
24966,SDIST,UPD,0,0,0,75,0,0,0,0,24.35,18.26,450.00,419.56,100.00,75.00,450.00,270.94,376,18,0,0,260,75,0,0,0.00,0.00,0.00,0.00,0.00,0,0,0,    2E9B
24977,RECV,WR,996,993,993,-1410,173,173,173,-1464,0.00,0.00,0.00,0.00,0.00,0.00,0.00,0.00,0,0,0,0,0,0,0,0,0.00,0.00,0.00,0.00,0.00,0,0,0,    19B0
24988,HOVER,UPD,1500,1500,1500,0,1000,1000,1000,0,0.00,0.00,0.00,0.00,0.00,0.00,0.00,0.00,0,0,0,0,0,0,0,0,0.00,0.00,0.00,0.00,0.00,100,400,500,    A57B
24998,RECV,WR,996,993,993,192,173,173,173,-1464,0.00,0.00,0.00,0.00,0.00,0.00,0.00,0.00,0,0,0,0,0,0,0,0,0.00,0.00,0.00,0.00,0.00,0,0,0,    434F
25025,HOVER,UPD,1500,1500,1500,0,1000,1000,1000,0,0.00,0.00,0.00,0.00,0.00,0.00,0.00,0.00,0,0,0,0,0,0,0,0,0.00,0.00,0.00,0.00,0.00,100,400,500,     17F
25046,HOVER,UPD,1500,1500,1500,0,1000,1000,1000,0,0.00,0.00,0.00,0.00,0.00,0.00,0.00,0.00,0,0,0,0,0,0,0,0,0.00,0.00,0.00,0.00,0.00,100,400,500,    D9F1
25057,RECV,WR,996,993,993,-1410,173,173,173,-1464,0.00,0.00,0.00,0.00,0.00,0.00,0.00,0.00,0,0,0,0,0,0,0,0,0.00,0.00,0.00,0.00,0.00,0,0,0,    3861
25072,SDIST,UPD,0,0,0,75,0,0,0,0,29.20,21.90,450.00,413.50,100.00,75.00,450.00,274.55,361,21,0,0,280,75,0,0,0.00,0.00,0.00,0.00,0.00,0,0,0,    69B7
25083,HOVER,UPD,1500,1500,1500,0,1000,1000,1000,0,0.00,0.00,0.00,0.00,0.00,0.00,0.00,0.00,0,0,0,0,0,0,0,0,0.00,0.00,0.00,0.00,0.00,100,400,500,    2634
25073,RECV,WR,996,993,993,192,173,173,173,-1464,0.00,0.00,0.00,0.00,0.00,0.00,0.00,0.00,0,0,0,0,0,0,0,0,0.00,0.00,0.00,0.00,0.00,0,0,0,    556B
25110,HOVER,UPD,1500,1500,1500,0,1000,1000,1000,0,0.00,0.00,0.00,0.00,0.00,0.00,0.00,0.00,0,0,0,0,0,0,0,0,0.00,0.00,0.00,0.00,0.00,100,400,500,    6FCE
25131,HOVER,UPD,1500,1500,1500,0,1000,1000,1000,0,0.00,0.00,0.00,0.00,0.00,0.00,0.00,0.00,0,0,0,0,0,0,0,0,0.00,0.00,0.00,0.00,0.00,100,400,500,    D7AB
25142,RECV,WR,996,993,993,-1410,173,173,173,-1464,0.00,0.00,0.00,0.00,0.00,0.00,0.00,0.00,0,0,0,0,0,0,0,0,0.00,0.00,0.00,0.00,0.00,0,0,0,    180F
25157,RECV,WR,996,993,993,192,173,173,173,-1464,0.00,0.00,0.00,0.00,0.00,0.00,0.00,0.00,0,0,0,0,0,0,0,0,0.00,0.00,0.00,0.00,0.00,0,0,0,    89EC
25168,HOVER,UPD,1500,1500,1500,0,1000,1000,1000,0,0.00,0.00,0.00,0.00,0.00,0.00,0.00,0.00,0,0,0,0,0,0,0,0,0.00,0.00,0.00,0.00,0.00,100,400,500,    9A2F
25168,SDIST,UPD,0,0,0,75,0,0,0,0,38.67,29.01,450.00,401.66,100.00,75.00,450.00,279.49,349,29,0,0,290,75,0,0,0.00,0.00,0.00,0.00,0.00,0,0,0,    1FF7
25195,HOVER,UPD,1500,1500,1500,0,1000,1000,1000,0,0.00,0.00,0.00,0.00,0.00,0.00,0.00,0.00,0,0,0,0,0,0,0,0,0.00,0.00,0.00,0.00,0.00,100,400,500,    9BB0
25206,RECV,WR,996,993,993,-1410,173,173,173,-1464,0.00,0.00,0.00,0.00,0.00,0.00,0.00,0.00,0,0,0,0,0,0,0,0,0.00,0.00,0.00,0.00,0.00,0,0,0,    7BB2
25221,RECV,WR,996,993,993,192,173,173,173,-1464,0.00,0.00,0.00,0.00,0.00,0.00,0.00,0.00,0,0,0,0,0,0,0,0,0.00,0.00,0.00,0.00,0.00,0,0,0,    7A05
25232,HOVER,UPD,1500,1500,1500,0,1000,1000,1000,0,0.00,0.00,0.00,0.00,0.00,0.00,0.00,0.00,0,0,0,0,0,0,0,0,0.00,0.00,0.00,0.00,0.00,100,400,500,    CAF4
25248,SDIST,UPD,0,0,0,75,0,0,0,0,51.85,38.89,450.00,385.18,100.00,75.00,450.00,279.64,346,38,0,0,280,75,0,0,0.00,0.00,0.00,0.00,0.00,0,0,0,    128C
25259,RECV,WR,996,993,993,-1410,173,173,173,-1464,0.00,0.00,0.00,0.00,0.00,0.00,0.00,0.00,0,0,0,0,0,0,0,0,0.00,0.00,0.00,0.00,0.00,0,0,0,    89A1
25270,HOVER,UPD,1500,1500,1500,0,1000,1000,1000,0,0.00,0.00,0.00,0.00,0.00,0.00,0.00,0.00,0,0,0,0,0,0,0,0,0.00,0.00,0.00,0.00,0.00,100,400,500,    AA1F
25280,RECV,WR,996,993,993,192,173,173,173,-1464,0.00,0.00,0.00,0.00,0.00,0.00,0.00,0.00,0,0,0,0,0,0,0,0,0.00,0.00,0.00,0.00,0.00,0,0,0,    DFE0
25307,HOVER,UPD,1500,1500,1500,0,1000,1000,1000,0,0.00,0.00,0.00,0.00,0.00,0.00,0.00,0.00,0,0,0,0,0,0,0,0,0.00,0.00,0.00,0.00,0.00,100,400,500,    A445
25328,HOVER,UPD,1500,1500,1500,0,1000,1000,1000,0,0.00,0.00,0.00,0.00,0.00,0.00,0.00,0.00,0,0,0,0,0,0,0,0,0.00,0.00,0.00,0.00,0.00,100,400,500,    1CB1
25328,SDIST,UPD,0,0,0,75,0,0,0,0,66.38,49.78,450.00,367.03,100.00,75.00,450.00,286.61,338,49,0,0,310,75,0,0,0.00,0.00,0.00,0.00,0.00,0,0,0,    551C
25339,RECV,WR,996,993,993,-1410,173,173,173,-1464,0.00,0.00,0.00,0.00,0.00,0.00,0.00,0.00,0,0,0,0,0,0,0,0,0.00,0.00,0.00,0.00,0.00,0,0,0,    9B72
25361,HOVER,UPD,1500,1500,1500,0,1000,1000,1000,0,0.00,0.00,0.00,0.00,0.00,0.00,0.00,0.00,0,0,0,0,0,0,0,0,0.00,0.00,0.00,0.00,0.00,100,400,500,    9FC3
25372,RECV,WR,996,993,993,192,173,173,173,-1464,0.00,0.00,0.00,0.00,0.00,0.00,0.00,0.00,0,0,0,0,0,0,0,0,0.00,0.00,0.00,0.00,0.00,0,0,0,    209D
25398,HOVER,UPD,1500,1500,1500,0,1000,1000,1000,0,0.00,0.00,0.00,0.00,0.00,0.00,0.00,0.00,0,0,0,0,0,0,0,0,0.00,0.00,0.00,0.00,0.00,100,400,500,    48FC
25419,HOVER,UPD,1500,1500,1500,0,1000,1000,1000,0,0.00,0.00,0.00,0.00,0.00,0.00,0.00,0.00,0,0,0,0,0,0,0,0,0.00,0.00,0.00,0.00,0.00,100,400,500,    23EE
25430,RECV,WR,996,993,993,-1410,173,173,173,-1464,0.00,0.00,0.00,0.00,0.00,0.00,0.00,0.00,0,0,0,0,0,0,0,0,0.00,0.00,0.00,0.00,0.00,0,0,0,    6297
25441,SDIST,UPD,0,0,0,75,0,0,0,0,89.32,66.99,450.00,338.35,100.00,75.00,450.00,290.22,300,66,0,0,300,75,0,0,0.00,0.00,0.00,0.00,0.00,0,0,0,      52
25452,RECV,WR,996,993,993,192,173,173,173,-1464,0.00,0.00,0.00,0.00,0.00,0.00,0.00,0.00,0,0,0,0,0,0,0,0,0.00,0.00,0.00,0.00,0.00,0,0,0,    CAEB
25462,HOVER,UPD,1500,1500,1500,0,1000,1000,1000,0,0.00,0.00,0.00,0.00,0.00,0.00,0.00,0.00,0,0,0,0,0,0,0,0,0.00,0.00,0.00,0.00,0.00,100,400,500,    88F7
