,TIME,TASK,GROUP,CH_R,CH_P,CH_Y,CH_H,CH_T,ARMING,AUX2,AUX3,float0,float1,float2,float3,float4,float5,float6,float7,long0,long1,long2,long3,long4,long5,long6,long7,pidRoll,pidPitch,pidYaw,pidThrust,pidHover,HOVER_MINIMAL_HEIGHT,HOVER_MIN_DISTANCE,HOVER_MAX_DISTANCE,CRC
0,1594665,SDIST,UPD,0,0,0,39,0,0,0,0,17.32,12.99,450.00,428.36,52.16,39.12,450.00,384.80,429,12,0,0,390,39,0,0,0.00,0.00,0.00,0.00,0.00,0,0,0,    5BBC
1,1594676,RECV,WR,996,993,993,-1410,173,173,173,-1464,0.00,0.00,0.00,0.00,0.00,0.00,0.00,0.00,0,0,0,0,0,0,0,0,0.00,0.00,0.00,0.00,0.00,0,0,0,     1E4
2,1594687,HOVER,UPD,1500,1500,1500,0,1000,1000,1000,0,0.00,0.00,0.00,0.00,0.00,0.00,0.00,0.00,0,0,0,0,0,0,0,0,0.00,0.00,0.00,0.00,0.00,100,400,500,    2E18
3,1594708,RECV,WR,996,993,993,192,173,173,173,-1464,0.00,0.00,0.00,0.00,0.00,0.00,0.00,0.00,0,0,0,0,0,0,0,0,0.00,0.00,0.00,0.00,0.00,0,0,0,    5F85
4,1594724,HOVER,UPD,1500,1500,1500,0,1000,1000,1000,0,0.00,0.00,0.00,0.00,0.00,0.00,0.00,0.00,0,0,0,0,0,0,0,0,0.00,0.00,0.00,0.00,0.00,100,400,500,    24D9
5,1594745,HOVER,UPD,1500,1500,1500,0,1000,1000,1000,0,0.00,0.00,0.00,0.00,0.00,0.00,0.00,0.00,0,0,0,0,0,0,0,0,0.00,0.00,0.00,0.00,0.00,100,400,500,    9707
6,1594756,RECV,WR,996,993,993,-1410,173,173,173,-1464,0.00,0.00,0.00,0.00,0.00,0.00,0.00,0.00,0,0,0,0,0,0,0,0,0.00,0.00,0.00,0.00,0.00,0,0,0,    707B
7,1594771,SDIST,UPD,0,0,0,38,0,0,0,0,17.31,12.98,450.00,428.37,51.78,38.83,450.00,385.28,429,12,0,0,390,38,0,0,0.00,0.00,0.00,0.00,0.00,0,0,0,    B670
8,1594782,HOVER,UPD,1500,1500,1500,0,1000,1000,1000,0,0.00,0.00,0.00,0.00,0.00,0.00,0.00,0.00,0,0,0,0,0,0,0,0,0.00,0.00,0.00,0.00,0.00,100,400,500,     392
9,1594772,RECV,WR,996,993,993,192,173,173,173,-1464,0.00,0.00,0.00,0.00,0.00,0.00,0.00,0.00,0,0,0,0,0,0,0,0,0.00,0.00,0.00,0.00,0.00,0,0,0,    DE14
10,1594809,HOVER,UPD,1500,1500,1500,0,1000,1000,1000,0,0.00,0.00,0.00,0.00,0.00,0.00,0.00,0.00,0,0,0,0,0,0,0,0,0.00,0.00,0.00,0.00,0.00,100,400,500,    AA67
11,1594830,HOVER,UPD,1500,1500,1500,0,1000,1000,1000,0,0.00,0.00,0.00,0.00,0.00,0.00,0.00,0.00,0,0,0,0,0,0,0,0,0.00,0.00,0.00,0.00,0.00,100,400,500,    6195
12,1594841,RECV,WR,996,993,993,-1410,173,173,173,-1464,0.00,0.00,0.00,0.00,0.00,0.00,0.00,0.00,0,0,0,0,0,0,0,0,0.00,0.00,0.00,0.00,0.00,0,0,0,    8175
13,1594856,RECV,WR,996,993,993,192,173,173,173,-1464,0.00,0.00,0.00,0.00,0.00,0.00,0.00,0.00,0,0,0,0,0,0,0,0,0.00,0.00,0.00,0.00,0.00,0,0,0,    3321
14,1594867,HOVER,UPD,1500,1500,1500,0,1000,1000,1000,0,0.00,0.00,0.00,0.00,0.00,0.00,0.00,0.00,0,0,0,0,0,0,0,0,0.00,0.00,0.00,0.00,0.00,100,400,500,    2C80
15,1594867,SDIST,UPD,0,0,0,39,0,0,0,0,17.31,12.98,450.00,428.36,52.17,39.13,450.00,384.79,428,12,0,0,380,39,0,0,0.00,0.00,0.00,0.00,0.00,0,0,0,    266A
16,1594894,HOVER,UPD,1500,1500,1500,0,1000,1000,1000,0,0.00,0.00,0.00,0.00,0.00,0.00,0.00,0.00,0,0,0,0,0,0,0,0,0.00,0.00,0.00,0.00,0.00,100,400,500,    2D8E
17,1594905,RECV,WR,996,993,993,-1410,173,173,173,-1464,0.00,0.00,0.00,0.00,0.00,0.00,0.00,0.00,0,0,0,0,0,0,0,0,0.00,0.00,0.00,0.00,0.00,0,0,0,    62BA
18,1594920,RECV,WR,996,993,993,192,173,173,173,-1464,0.00,0.00,0.00,0.00,0.00,0.00,0.00,0.00,0,0,0,0,0,0,0,0,0.00,0.00,0.00,0.00,0.00,0,0,0,    A095
19,1594931,HOVER,UPD,1500,1500,1500,0,1000,1000,1000,0,0.00,0.00,0.00,0.00,0.00,0.00,0.00,0.00,0,0,0,0,0,0,0,0,0.00,0.00,0.00,0.00,0.00,100,400,500,    9ABF
20,1594947,SDIST,UPD,0,0,0,39,0,0,0,0,17.33,13.00,450.00,428.34,52.53,39.39,450.00,384.34,427,12,0,0,380,39,0,0,0.00,0.00,0.00,0.00,0.00,0,0,0,    75D0
21,1594958,RECV,WR,996,993,993,-1410,173,173,173,-1464,0.00,0.00,0.00,0.00,0.00,0.00,0.00,0.00,0,0,0,0,0,0,0,0,0.00,0.00,0.00,0.00,0.00,0,0,0,    F0F4
22,1594969,HOVER,UPD,1500,1500,1500,0,1000,1000,1000,0,0.00,0.00,0.00,0.00,0.00,0.00,0.00,0.00,0,0,0,0,0,0,0,0,0.00,0.00,0.00,0.00,0.00,100,400,500,    E293
23,1594990,RECV,WR,996,993,993,192,173,173,173,-1464,0.00,0.00,0.00,0.00,0.00,0.00,0.00,0.00,0,0,0,0,0,0,0,0,0.00,0.00,0.00,0.00,0.00,0,0,0,    59A2
24,1595006,HOVER,UPD,1500,1500,1500,0,1000,1000,1000,0,0.00,0.00,0.00,0.00,0.00,0.00,0.00,0.00,0,0,0,0,0,0,0,0,0.00,0.00,0.00,0.00,0.00,100,400,500,    310A
25,1595027,HOVER,UPD,1500,1500,1500,0,1000,1000,1000,0,0.00,0.00,0.00,0.00,0.00,0.00,0.00,0.00,0,0,0,0,0,0,0,0,0.00,0.00,0.00,0.00,0.00,100,400,500,    896F
26,1595038,RECV,WR,996,993,993,-1410,173,173,173,-1464,0.00,0.00,0.00,0.00,0.00,0.00,0.00,0.00,0,0,0,0,0,0,0,0,0.00,0.00,0.00,0.00,0.00,0,0,0,    B269
27,1595049,SDIST,UPD,0,0,0,39,0,0,0,0,17.35,13.01,450.00,428.31,52.11,39.08,450.00,384.87,427,13,0,0,390,39,0,0,0.00,0.00,0.00,0.00,0.00,0,0,0,    62F9
28,1595060,RECV,WR,996,993,993,192,173,173,173,-1464,0.00,0.00,0.00,0.00,0.00,0.00,0.00,0.00,0,0,0,0,0,0,0,0,0.00,0.00,0.00,0.00,0.00,0,0,0,    6452
29,1595070,HOVER,UPD,1500,1500,1500,0,1000,1000,1000,0,0.00,0.00,0.00,0.00,0.00,0.00,0.00,0.00,0,0,0,0,0,0,0,0,0.00,0.00,0.00,0.00,0.00,100,400,500,    C47A
30,1595102,HOVER,UPD,1500,1500,1500,0,1000,1000,1000,0,0.00,0.00,0.00,0.00,0.00,0.00,0.00,0.00,0,0,0,0,0,0,0,0,0.00,0.00,0.00,0.00,0.00,100,400,500,    2928
31,1595104,RECV,WR,996,993,993,-1410,173,173,173,-1464,0.00,0.00,0.00,0.00,0.00,0.00,0.00,0.00,0,0,0,0,0,0,0,0,0.00,0.00,0.00,0.00,0.00,0,0,0,    8ACA
32,1595128,RECV,WR,996,993,993,192,173,173,173,-1464,0.00,0.00,0.00,0.00,0.00,0.00,0.00,0.00,0,0,0,0,0,0,0,0,0.00,0.00,0.00,0.00,0.00,0,0,0,    151E
33,1595139,HOVER,UPD,1500,1500,1500,0,1000,1000,1000,0,0.00,0.00,0.00,0.00,0.00,0.00,0.00,0.00,0,0,0,0,0,0,0,0,0.00,0.00,0.00,0.00,0.00,100,400,500,    898A
34,1595150,SDIST,UPD,0,0,0,38,0,0,0,0,17.36,13.02,450.00,428.31,51.72,38.79,450.00,385.35,428,13,0,0,390,38,0,0,0.00,0.00,0.00,0.00,0.00,0,0,0,    AD56
35,1595166,HOVER,UPD,1500,1500,1500,0,1000,1000,1000,0,0.00,0.00,0.00,0.00,0.00,0.00,0.00,0.00,0,0,0,0,0,0,0,0,0.00,0.00,0.00,0.00,0.00,100,400,500,    79FE
36,1595177,RECV,WR,996,993,993,-1410,173,173,173,-1464,0.00,0.00,0.00,0.00,0.00,0.00,0.00,0.00,0,0,0,0,0,0,0,0,0.00,0.00,0.00,0.00,0.00,0,0,0,    1890
37,1595192,RECV,WR,996,993,993,192,173,173,173,-1464,0.00,0.00,0.00,0.00,0.00,0.00,0.00,0.00,0,0,0,0,0,0,0,0,0.00,0.00,0.00,0.00,0.00,0,0,0,    9B2F
38,1595203,HOVER,UPD,1500,1500,1500,0,1000,1000,1000,0,0.00,0.00,0.00,0.00,0.00,0.00,0.00,0.00,0,0,0,0,0,0,0,0,0.00,0.00,0.00,0.00,0.00,100,400,500,    5F27
39,1595219,SDIST,UPD,0,0,0,39,0,0,0,0,17.36,13.02,450.00,428.30,52.12,39.09,450.00,384.85,428,13,0,0,380,39,0,0,0.00,0.00,0.00,0.00,0.00,0,0,0,    8E78
40,1595230,RECV,WR,996,993,993,-1410,173,173,173,-1464,0.00,0.00,0.00,0.00,0.00,0.00,0.00,0.00,0,0,0,0,0,0,0,0,0.00,0.00,0.00,0.00,0.00,0,0,0,    A34E
41,1595241,HOVER,UPD,1500,1500,1500,0,1000,1000,1000,0,0.00,0.00,0.00,0.00,0.00,0.00,0.00,0.00,0,0,0,0,0,0,0,0,0.00,0.00,0.00,0.00,0.00,100,400,500,    3FCC
42,1595262,RECV,WR,996,993,993,192,173,173,173,-1464,0.00,0.00,0.00,0.00,0.00,0.00,0.00,0.00,0,0,0,0,0,0,0,0,0.00,0.00,0.00,0.00,0.00,0,0,0,    4F04
43,1595278,HOVER,UPD,1500,1500,1500,0,1000,1000,1000,0,0.00,0.00,0.00,0.00,0.00,0.00,0.00,0.00,0,0,0,0,0,0,0,0,0.00,0.00,0.00,0.00,0.00,100,400,500,    F43E
44,1595299,HOVER,UPD,1500,1500,1500,0,1000,1000,1000,0,0.00,0.00,0.00,0.00,0.00,0.00,0.00,0.00,0,0,0,0,0,0,0,0,0.00,0.00,0.00,0.00,0.00,100,400,500,    5096
45,1595310,RECV,WR,996,993,993,-1410,173,173,173,-1464,0.00,0.00,0.00,0.00,0.00,0.00,0.00,0.00,0,0,0,0,0,0,0,0,0.00,0.00,0.00,0.00,0.00,0,0,0,    D2D1
46,1595325,SDIST,UPD,0,0,0,39,0,0,0,0,17.36,13.02,450.00,428.29,52.49,39.36,450.00,384.39,428,13,0,0,380,39,0,0,0.00,0.00,0.00,0.00,0.00,0,0,0,    1320
47,1595336,HOVER,UPD,1500,1500,1500,0,1000,1000,1000,0,0.00,0.00,0.00,0.00,0.00,0.00,0.00,0.00,0,0,0,0,0,0,0,0,0.00,0.00,0.00,0.00,0.00,100,400,500,    3196
48,1595326,RECV,WR,996,993,993,192,173,173,173,-1464,0.00,0.00,0.00,0.00,0.00,0.00,0.00,0.00,0,0,0,0,0,0,0,0,0.00,0.00,0.00,0.00,0.00,0,0,0,    9453
49,1595363,HOVER,UPD,1500,1500,1500,0,1000,1000,1000,0,0.00,0.00,0.00,0.00,0.00,0.00,0.00,0.00,0,0,0,0,0,0,0,0,0.00,0.00,0.00,0.00,0.00,100,400,500,    17D3
50,1595384,HOVER,UPD,1500,1500,1500,0,1000,1000,1000,0,0.00,0.00,0.00,0.00,0.00,0.00,0.00,0.00,0,0,0,0,0,0,0,0,0.00,0.00,0.00,0.00,0.00,100,400,500,     E8B
51,1595395,RECV,WR,996,993,993,-1410,173,173,173,-1464,0.00,0.00,0.00,0.00,0.00,0.00,0.00,0.00,0,0,0,0,0,0,0,0,0.00,0.00,0.00,0.00,0.00,0,0,0,    6CCD
52,1595410,RECV,WR,996,993,993,192,173,173,173,-1464,0.00,0.00,0.00,0.00,0.00,0.00,0.00,0.00,0,0,0,0,0,0,0,0,0.00,0.00,0.00,0.00,0.00,0,0,0,    527F
53,1595421,HOVER,UPD,1500,1500,1500,0,1000,1000,1000,0,0.00,0.00,0.00,0.00,0.00,0.00,0.00,0.00,0,0,0,0,0,0,0,0,0.00,0.00,0.00,0.00,0.00,100,400,500,    3EF4
54,1595421,SDIST,UPD,0,0,0,39,0,0,0,0,17.40,13.05,450.00,428.25,52.07,39.05,450.00,384.92,426,13,0,0,390,39,0,0,0.00,0.00,0.00,0.00,0.00,0,0,0,    9860
55,1595448,HOVER,UPD,1500,1500,1500,0,1000,1000,1000,0,0.00,0.00,0.00,0.00,0.00,0.00,0.00,0.00,0,0,0,0,0,0,0,0,0.00,0.00,0.00,0.00,0.00,100,400,500,    304B
56,1595459,RECV,WR,996,993,993,-1410,173,173,173,-1464,0.00,0.00,0.00,0.00,0.00,0.00,0.00,0.00,0,0,0,0,0,0,0,0,0.00,0.00,0.00,0.00,0.00,0,0,0,    4878
57,1595474,RECV,WR,996,993,993,192,173,173,173,-1464,0.00,0.00,0.00,0.00,0.00,0.00,0.00,0.00,0,0,0,0,0,0,0,0,0.00,0.00,0.00,0.00,0.00,0,0,0,    C3B9
58,1595485,HOVER,UPD,1500,1500,1500,0,1000,1000,1000,0,0.00,0.00,0.00,0.00,0.00,0.00,0.00,0.00,0,0,0,0,0,0,0,0,0.00,0.00,0.00,0.00,0.00,100,400,500,    72EF
59,1595501,SDIST,UPD,0,0,0,39,0,0,0,0,17.37,13.03,450.00,428.29,52.44,39.33,450.00,384.45,430,13,0,0,380,39,0,0,0.00,0.00,0.00,0.00,0.00,0,0,0,    38E9
60,1595512,RECV,WR,996,993,993,-1410,173,173,173,-1464,0.00,0.00,0.00,0.00,0.00,0.00,0.00,0.00,0,0,0,0,0,0,0,0,0.00,0.00,0.00,0.00,0.00,0,0,0,    223B
61,1595523,HOVER,UPD,1500,1500,1500,0,1000,1000,1000,0,0.00,0.00,0.00,0.00,0.00,0.00,0.00,0.00,0,0,0,0,0,0,0,0,0.00,0.00,0.00,0.00,0.00,100,400,500,    9B26
62,1595544,RECV,WR,996,993,993,192,173,173,173,-1464,0.00,0.00,0.00,0.00,0.00,0.00,0.00,0.00,0,0,0,0,0,0,0,0,0.00,0.00,0.00,0.00,0.00,0,0,0,    786F
63,1595560,HOVER,UPD,1500,1500,1500,0,1000,1000,1000,0,0.00,0.00,0.00,0.00,0.00,0.00,0.00,0.00,0,0,0,0,0,0,0,0,0.00,0.00,0.00,0.00,0.00,100,400,500,    CE65
64,1595581,HOVER,UPD,1500,1500,1500,0,1000,1000,1000,0,0.00,0.00,0.00,0.00,0.00,0.00,0.00,0.00,0,0,0,0,0,0,0,0,0.00,0.00,0.00,0.00,0.00,100,400,500,    6ACD
65,1595582,RECV,WR,996,993,993,-1410,173,173,173,-1464,0.00,0.00,0.00,0.00,0.00,0.00,0.00,0.00,0,0,0,0,0,0,0,0,0.00,0.00,0.00,0.00,0.00,0,0,0,    FC70
66,1595581,SDIST,UPD,0,0,0,39,0,0,0,0,17.38,13.03,450.00,428.28,52.77,39.58,450.00,384.04,428,13,0,0,380,39,0,0,0.00,0.00,0.00,0.00,0.00,0,0,0,    C260
67,1595613,RECV,WR,996,993,993,192,173,173,173,-1464,0.00,0.00,0.00,0.00,0.00,0.00,0.00,0.00,0,0,0,0,0,0,0,0,0.00,0.00,0.00,0.00,0.00,0,0,0,    D4BC
68,1595634,HOVER,UPD,1500,1500,1500,0,1000,1000,1000,0,0.00,0.00,0.00,0.00,0.00,0.00,0.00,0.00,0,0,0,0,0,0,0,0,0.00,0.00,0.00,0.00,0.00,100,400,500,    9E2F
69,1595655,HOVER,UPD,1500,1500,1500,0,1000,1000,1000,0,0.00,0.00,0.00,0.00,0.00,0.00,0.00,0.00,0,0,0,0,0,0,0,0,0.00,0.00,0.00,0.00,0.00,100,400,500,    2DF1
70,1595657,RECV,WR,996,993,993,-1410,173,173,173,-1464,0.00,0.00,0.00,0.00,0.00,0.00,0.00,0.00,0,0,0,0,0,0,0,0,0.00,0.00,0.00,0.00,0.00,0,0,0,    F9B8
71,1595681,RECV,WR,996,993,993,192,173,173,173,-1464,0.00,0.00,0.00,0.00,0.00,0.00,0.00,0.00,0,0,0,0,0,0,0,0,0.00,0.00,0.00,0.00,0.00,0,0,0,    942F
72,1595692,HOVER,UPD,1500,1500,1500,0,1000,1000,1000,0,0.00,0.00,0.00,0.00,0.00,0.00,0.00,0.00,0,0,0,0,0,0,0,0,0.00,0.00,0.00,0.00,0.00,100,400,500,    B964
73,1595703,SDIST,UPD,0,0,0,39,0,0,0,0,17.35,13.01,450.00,428.31,53.07,39.80,450.00,383.66,430,13,0,0,380,39,0,0,0.00,0.00,0.00,0.00,0.00,0,0,0,    120B
74,1595719,HOVER,UPD,1500,1500,1500,0,1000,1000,1000,0,0.00,0.00,0.00,0.00,0.00,0.00,0.00,0.00,0,0,0,0,0,0,0,0,0.00,0.00,0.00,0.00,0.00,100,400,500,    8309
75,1595730,RECV,WR,996,993,993,-1410,173,173,173,-1464,0.00,0.00,0.00,0.00,0.00,0.00,0.00,0.00,0,0,0,0,0,0,0,0,0.00,0.00,0.00,0.00,0.00,0,0,0,    F3B2
76,1595745,RECV,WR,996,993,993,192,173,173,173,-1464,0.00,0.00,0.00,0.00,0.00,0.00,0.00,0.00,0,0,0,0,0,0,0,0,0.00,0.00,0.00,0.00,0.00,0,0,0,    B5A7
77,1595756,HOVER,UPD,1500,1500,1500,0,1000,1000,1000,0,0.00,0.00,0.00,0.00,0.00,0.00,0.00,0.00,0,0,0,0,0,0,0,0,0.00,0.00,0.00,0.00,0.00,100,400,500,    BD8B
78,1595772,SDIST,UPD,0,0,0,40,0,0,0,0,17.34,13.00,450.00,428.33,53.34,40.00,450.00,383.33,429,13,0,0,380,40,0,0,0.00,0.00,0.00,0.00,0.00,0,0,0,    FE69
79,1595783,RECV,WR,996,993,993,-1410,173,173,173,-1464,0.00,0.00,0.00,0.00,0.00,0.00,0.00,0.00,0,0,0,0,0,0,0,0,0.00,0.00,0.00,0.00,0.00,0,0,0,    C43C
80,1595794,HOVER,UPD,1500,1500,1500,0,1000,1000,1000,0,0.00,0.00,0.00,0.00,0.00,0.00,0.00,0.00,0,0,0,0,0,0,0,0,0.00,0.00,0.00,0.00,0.00,100,400,500,    CA16
81,1595815,RECV,WR,996,993,993,192,173,173,173,-1464,0.00,0.00,0.00,0.00,0.00,0.00,0.00,0.00,0,0,0,0,0,0,0,0,0.00,0.00,0.00,0.00,0.00,0,0,0,    3813
82,1595831,HOVER,UPD,1500,1500,1500,0,1000,1000,1000,0,0.00,0.00,0.00,0.00,0.00,0.00,0.00,0.00,0,0,0,0,0,0,0,0,0.00,0.00,0.00,0.00,0.00,100,400,500,    EEBF
83,1595852,HOVER,UPD,1500,1500,1500,0,1000,1000,1000,0,0.00,0.00,0.00,0.00,0.00,0.00,0.00,0.00,0,0,0,0,0,0,0,0,0.00,0.00,0.00,0.00,0.00,100,400,500,    3631
84,1595863,RECV,WR,996,993,993,-1410,173,173,173,-1464,0.00,0.00,0.00,0.00,0.00,0.00,0.00,0.00,0,0,0,0,0,0,0,0,0.00,0.00,0.00,0.00,0.00,0,0,0,    A14A
85,1595878,SDIST,UPD,0,0,0,39,0,0,0,0,17.32,12.99,450.00,428.36,52.86,39.65,450.00,383.92,430,12,0,0,390,39,0,0,0.00,0.00,0.00,0.00,0.00,0,0,0,    2FFB
86,1595889,HOVER,UPD,1500,1500,1500,0,1000,1000,1000,0,0.00,0.00,0.00,0.00,0.00,0.00,0.00,0.00,0,0,0,0,0,0,0,0,0.00,0.00,0.00,0.00,0.00,100,400,500,     793
87,1595879,RECV,WR,996,993,993,192,173,173,173,-1464,0.00,0.00,0.00,0.00,0.00,0.00,0.00,0.00,0,0,0,0,0,0,0,0,0.00,0.00,0.00,0.00,0.00,0,0,0,    95D8
88,1595916,HOVER,UPD,1500,1500,1500,0,1000,1000,1000,0,0.00,0.00,0.00,0.00,0.00,0.00,0.00,0.00,0,0,0,0,0,0,0,0,0.00,0.00,0.00,0.00,0.00,100,400,500,    25A8
89,1595937,HOVER,UPD,1500,1500,1500,0,1000,1000,1000,0,0.00,0.00,0.00,0.00,0.00,0.00,0.00,0.00,0,0,0,0,0,0,0,0,0.00,0.00,0.00,0.00,0.00,100,400,500,    9DCD
90,1595948,RECV,WR,996,993,993,-1410,173,173,173,-1464,0.00,0.00,0.00,0.00,0.00,0.00,0.00,0.00,0,0,0,0,0,0,0,0,0.00,0.00,0.00,0.00,0.00,0,0,0,    99E3
91,1595963,RECV,WR,996,993,993,192,173,173,173,-1464,0.00,0.00,0.00,0.00,0.00,0.00,0.00,0.00,0,0,0,0,0,0,0,0,0.00,0.00,0.00,0.00,0.00,0,0,0,    ABA7
92,1595974,HOVER,UPD,1500,1500,1500,0,1000,1000,1000,0,0.00,0.00,0.00,0.00,0.00,0.00,0.00,0.00,0,0,0,0,0,0,0,0,0.00,0.00,0.00,0.00,0.00,100,400,500,    C88E
93,1595974,SDIST,UPD,0,0,0,39,0,0,0,0,17.32,12.99,450.00,428.35,52.42,39.31,450.00,384.48,428,12,0,0,390,39,0,0,0.00,0.00,0.00,0.00,0.00,0,0,0,    DBCD
94,1596001,HOVER,UPD,1500,1500,1500,0,1000,1000,1000,0,0.00,0.00,0.00,0.00,0.00,0.00,0.00,0.00,0,0,0,0,0,0,0,0,0.00,0.00,0.00,0.00,0.00,100,400,500,    66F5
95,1596012,RECV,WR,996,993,993,-1410,173,173,173,-1464,0.00,0.00,0.00,0.00,0.00,0.00,0.00,0.00,0,0,0,0,0,0,0,0,0.00,0.00,0.00,0.00,0.00,0,0,0,    E08B
96,1596027,RECV,WR,996,993,993,192,173,173,173,-1464,0.00,0.00,0.00,0.00,0.00,0.00,0.00,0.00,0,0,0,0,0,0,0,0,0.00,0.00,0.00,0.00,0.00,0,0,0,    C8D0
97,1596038,HOVER,UPD,1500,1500,1500,0,1000,1000,1000,0,0.00,0.00,0.00,0.00,0.00,0.00,0.00,0.00,0,0,0,0,0,0,0,0,0.00,0.00,0.00,0.00,0.00,100,400,500,    AD07
98,1596054,SDIST,UPD,0,0,0,39,0,0,0,0,17.31,12.98,450.00,428.36,52.75,39.56,450.00,384.06,429,12,0,0,380,39,0,0,0.00,0.00,0.00,0.00,0.00,0,0,0,    22DC
99,1596065,RECV,WR,996,993,993,-1410,173,173,173,-1464,0.00,0.00,0.00,0.00,0.00,0.00,0.00,0.00,0,0,0,0,0,0,0,0,0.00,0.00,0.00,0.00,0.00,0,0,0,    B26B
100,1596076,HOVER,UPD,1500,1500,1500,0,1000,1000,1000,0,0.00,0.00,0.00,0.00,0.00,0.00,0.00,0.00,0,0,0,0,0,0,0,0,0.00,0.00,0.00,0.00,0.00,100,400,500,    A62D
101,1596097,RECV,WR,996,993,993,192,173,173,173,-1464,0.00,0.00,0.00,0.00,0.00,0.00,0.00,0.00,0,0,0,0,0,0,0,0,0.00,0.00,0.00,0.00,0.00,0,0,0,    31E7
102,1596113,HOVER,UPD,1500,1500,1500,0,1000,1000,1000,0,0.00,0.00,0.00,0.00,0.00,0.00,0.00,0.00,0,0,0,0,0,0,0,0,0.00,0.00,0.00,0.00,0.00,100,400,500,     DD1
103,1596134,HOVER,UPD,1500,1500,1500,0,1000,1000,1000,0,0.00,0.00,0.00,0.00,0.00,0.00,0.00,0.00,0,0,0,0,0,0,0,0,0.00,0.00,0.00,0.00,0.00,100,400,500,     844
104,1596134,SDIST,UPD,0,0,0,39,0,0,0,0,17.27,12.95,450.00,428.41,53.05,39.79,450.00,383.69,431,12,0,0,380,39,0,0,0.00,0.00,0.00,0.00,0.00,0,0,0,    6715
105,1596135,RECV,WR,996,993,993,-1410,173,173,173,-1464,0.00,0.00,0.00,0.00,0.00,0.00,0.00,0.00,0,0,0,0,0,0,0,0,0.00,0.00,0.00,0.00,0.00,0,0,0,    89CD
106,1596167,HOVER,UPD,1500,1500,1500,0,1000,1000,1000,0,0.00,0.00,0.00,0.00,0.00,0.00,0.00,0.00,0,0,0,0,0,0,0,0,0.00,0.00,0.00,0.00,0.00,100,400,500,    93F1
107,1596178,RECV,WR,996,993,993,192,173,173,173,-1464,0.00,0.00,0.00,0.00,0.00,0.00,0.00,0.00,0,0,0,0,0,0,0,0,0.00,0.00,0.00,0.00,0.00,0,0,0,    3853
108,1596204,HOVER,UPD,1500,1500,1500,0,1000,1000,1000,0,0.00,0.00,0.00,0.00,0.00,0.00,0.00,0.00,0,0,0,0,0,0,0,0,0.00,0.00,0.00,0.00,0.00,100,400,500,     8D8
109,1596225,HOVER,UPD,1500,1500,1500,0,1000,1000,1000,0,0.00,0.00,0.00,0.00,0.00,0.00,0.00,0.00,0,0,0,0,0,0,0,0,0.00,0.00,0.00,0.00,0.00,100,400,500,    B0BD
110,1596225,SDIST,UPD,0,0,0,39,0,0,0,0,17.26,12.95,450.00,428.42,53.32,39.99,450.00,383.35,429,12,0,0,380,39,0,0,0.00,0.00,0.00,0.00,0.00,0,0,0,    C315
111,1596236,RECV,WR,996,993,993,-1410,173,173,173,-1464,0.00,0.00,0.00,0.00,0.00,0.00,0.00,0.00,0,0,0,0,0,0,0,0,0.00,0.00,0.00,0.00,0.00,0,0,0,    91E5
112,1596258,HOVER,UPD,1500,1500,1500,0,1000,1000,1000,0,0.00,0.00,0.00,0.00,0.00,0.00,0.00,0.00,0,0,0,0,0,0,0,0,0.00,0.00,0.00,0.00,0.00,100,400,500,    A654
113,1596269,RECV,WR,996,993,993,192,173,173,173,-1464,0.00,0.00,0.00,0.00,0.00,0.00,0.00,0.00,0,0,0,0,0,0,0,0,0.00,0.00,0.00,0.00,0.00,0,0,0,    BCE2
114,1596295,HOVER,UPD,1500,1500,1500,0,1000,1000,1000,0,0.00,0.00,0.00,0.00,0.00,0.00,0.00,0.00,0,0,0,0,0,0,0,0,0.00,0.00,0.00,0.00,0.00,100,400,500,    E4F0
115,1596316,HOVER,UPD,1500,1500,1500,0,1000,1000,1000,0,0.00,0.00,0.00,0.00,0.00,0.00,0.00,0.00,0,0,0,0,0,0,0,0,0.00,0.00,0.00,0.00,0.00,100,400,500,    63FC
116,1596327,RECV,WR,996,993,993,-1410,173,173,173,-1464,0.00,0.00,0.00,0.00,0.00,0.00,0.00,0.00,0,0,0,0,0,0,0,0,0.00,0.00,0.00,0.00,0.00,0,0,0,    7131
117,1596338,SDIST,UPD,0,0,0,40,0,0,0,0,17.28,12.96,450.00,428.39,53.55,40.17,450.00,383.06,427,12,0,0,380,40,0,0,0.00,0.00,0.00,0.00,0.00,0,0,0,    ADFD
118,1596349,RECV,WR,996,993,993,192,173,173,173,-1464,0.00,0.00,0.00,0.00,0.00,0.00,0.00,0.00,0,0,0,0,0,0,0,0,0.00,0.00,0.00,0.00,0.00,0,0,0,    F673
119,1596359,HOVER,UPD,1500,1500,1500,0,1000,1000,1000,0,0.00,0.00,0.00,0.00,0.00,0.00,0.00,0.00,0,0,0,0,0,0,0,0,0.00,0.00,0.00,0.00,0.00,100,400,500,    5D7E
120,1596391,HOVER,UPD,1500,1500,1500,0,1000,1000,1000,0,0.00,0.00,0.00,0.00,0.00,0.00,0.00,0.00,0,0,0,0,0,0,0,0,0.00,0.00,0.00,0.00,0.00,100,400,500,    FCD2
121,1596393,RECV,WR,996,993,993,-1410,173,173,173,-1464,0.00,0.00,0.00,0.00,0.00,0.00,0.00,0.00,0,0,0,0,0,0,0,0,0.00,0.00,0.00,0.00,0.00,0,0,0,    5E66
122,1596417,RECV,WR,996,993,993,192,173,173,173,-1464,0.00,0.00,0.00,0.00,0.00,0.00,0.00,0.00,0,0,0,0,0,0,0,0,0.00,0.00,0.00,0.00,0.00,0,0,0,     B82
123,1596428,HOVER,UPD,1500,1500,1500,0,1000,1000,1000,0,0.00,0.00,0.00,0.00,0.00,0.00,0.00,0.00,0,0,0,0,0,0,0,0,0.00,0.00,0.00,0.00,0.00,100,400,500,    699A
124,1596439,SDIST,UPD,0,0,0,39,0,0,0,0,17.31,12.98,450.00,428.37,53.07,39.81,450.00,383.66,427,12,0,0,390,39,0,0,0.00,0.00,0.00,0.00,0.00,0,0,0,    58D0
125,1596455,HOVER,UPD,1500,1500,1500,0,1000,1000,1000,0,0.00,0.00,0.00,0.00,0.00,0.00,0.00,0.00,0,0,0,0,0,0,0,0,0.00,0.00,0.00,0.00,0.00,100,400,500,    7F73
126,1596466,RECV,WR,996,993,993,-1410,173,173,173,-1464,0.00,0.00,0.00,0.00,0.00,0.00,0.00,0.00,0,0,0,0,0,0,0,0,0.00,0.00,0.00,0.00,0.00,0,0,0,    7ACD
127,1596481,RECV,WR,996,993,993,192,173,173,173,-1464,0.00,0.00,0.00,0.00,0.00,0.00,0.00,0.00,0,0,0,0,0,0,0,0,0.00,0.00,0.00,0.00,0.00,0,0,0,    DD07
128,1596492,HOVER,UPD,1500,1500,1500,0,1000,1000,1000,0,0.00,0.00,0.00,0.00,0.00,0.00,0.00,0.00,0,0,0,0,0,0,0,0,0.00,0.00,0.00,0.00,0.00,100,400,500,    EBE6
129,1596508,SDIST,UPD,0,0,0,40,0,0,0,0,17.31,12.98,450.00,428.36,53.34,40.00,450.00,383.33,428,12,0,0,380,40,0,0,0.00,0.00,0.00,0.00,0.00,0,0,0,    C769
130,1596519,RECV,WR,996,993,993,-1410,173,173,173,-1464,0.00,0.00,0.00,0.00,0.00,0.00,0.00,0.00,0,0,0,0,0,0,0,0,0.00,0.00,0.00,0.00,0.00,0,0,0,    F941
131,1596530,HOVER,UPD,1500,1500,1500,0,1000,1000,1000,0,0.00,0.00,0.00,0.00,0.00,0.00,0.00,0.00,0,0,0,0,0,0,0,0,0.00,0.00,0.00,0.00,0.00,100,400,500,    D48F
132,1596551,RECV,WR,996,993,993,192,173,173,173,-1464,0.00,0.00,0.00,0.00,0.00,0.00,0.00,0.00,0,0,0,0,0,0,0,0,0.00,0.00,0.00,0.00,0.00,0,0,0,    9BDE
133,1596567,HOVER,UPD,1500,1500,1500,0,1000,1000,1000,0,0.00,0.00,0.00,0.00,0.00,0.00,0.00,0.00,0,0,0,0,0,0,0,0,0.00,0.00,0.00,0.00,0.00,100,400,500,    999A
134,1596588,HOVER,UPD,1500,1500,1500,0,1000,1000,1000,0,0.00,0.00,0.00,0.00,0.00,0.00,0.00,0.00,0,0,0,0,0,0,0,0,0.00,0.00,0.00,0.00,0.00,100,400,500,    3DA3
135,1596599,RECV,WR,996,993,993,-1410,173,173,173,-1464,0.00,0.00,0.00,0.00,0.00,0.00,0.00,0.00,0,0,0,0,0,0,0,0,0.00,0.00,0.00,0.00,0.00,0,0,0,    3FD9
136,1596614,SDIST,UPD,0,0,0,39,0,0,0,0,17.30,12.98,450.00,428.37,52.87,39.65,450.00,383.91,429,12,0,0,390,39,0,0,0.00,0.00,0.00,0.00,0.00,0,0,0,    2583
137,1596625,HOVER,UPD,1500,1500,1500,0,1000,1000,1000,0,0.00,0.00,0.00,0.00,0.00,0.00,0.00,0.00,0,0,0,0,0,0,0,0,0.00,0.00,0.00,0.00,0.00,100,400,500,    BAD6
138,1596615,RECV,WR,996,993,993,192,173,173,173,-1464,0.00,0.00,0.00,0.00,0.00,0.00,0.00,0.00,0,0,0,0,0,0,0,0,0.00,0.00,0.00,0.00,0.00,0,0,0,    20D4
139,1596652,HOVER,UPD,1500,1500,1500,0,1000,1000,1000,0,0.00,0.00,0.00,0.00,0.00,0.00,0.00,0.00,0,0,0,0,0,0,0,0,0.00,0.00,0.00,0.00,0.00,100,400,500,    7A0E
140,1596673,HOVER,UPD,1500,1500,1500,0,1000,1000,1000,0,0.00,0.00,0.00,0.00,0.00,0.00,0.00,0.00,0,0,0,0,0,0,0,0,0.00,0.00,0.00,0.00,0.00,100,400,500,    C26B
141,1596684,RECV,WR,996,993,993,-1410,173,173,173,-1464,0.00,0.00,0.00,0.00,0.00,0.00,0.00,0.00,0,0,0,0,0,0,0,0,0.00,0.00,0.00,0.00,0.00,0,0,0,     E90
142,1596699,RECV,WR,996,993,993,192,173,173,173,-1464,0.00,0.00,0.00,0.00,0.00,0.00,0.00,0.00,0,0,0,0,0,0,0,0,0.00,0.00,0.00,0.00,0.00,0,0,0,    7010
143,1596710,HOVER,UPD,1500,1500,1500,0,1000,1000,1000,0,0.00,0.00,0.00,0.00,0.00,0.00,0.00,0.00,0,0,0,0,0,0,0,0,0.00,0.00,0.00,0.00,0.00,100,400,500,    D467
144,1596710,SDIST,UPD,0,0,0,39,0,0,0,0,17.29,12.97,450.00,428.38,52.43,39.32,450.00,384.46,429,12,0,0,390,39,0,0,0.00,0.00,0.00,0.00,0.00,0,0,0,    683E
145,1596737,HOVER,UPD,1500,1500,1500,0,1000,1000,1000,0,0.00,0.00,0.00,0.00,0.00,0.00,0.00,0.00,0,0,0,0,0,0,0,0,0.00,0.00,0.00,0.00,0.00,100,400,500,    D1F2
146,1596748,RECV,WR,996,993,993,-1410,173,173,173,-1464,0.00,0.00,0.00,0.00,0.00,0.00,0.00,0.00,0,0,0,0,0,0,0,0,0.00,0.00,0.00,0.00,0.00,0,0,0,    BA92
147,1596763,RECV,WR,996,993,993,192,173,173,173,-1464,0.00,0.00,0.00,0.00,0.00,0.00,0.00,0.00,0,0,0,0,0,0,0,0,0.00,0.00,0.00,0.00,0.00,0,0,0,    B360
148,1596774,HOVER,UPD,1500,1500,1500,0,1000,1000,1000,0,0.00,0.00,0.00,0.00,0.00,0.00,0.00,0.00,0,0,0,0,0,0,0,0,0.00,0.00,0.00,0.00,0.00,100,400,500,    84B1
149,1596790,SDIST,UPD,0,0,0,39,0,0,0,0,17.27,12.95,450.00,428.42,52.76,39.57,450.00,384.05,430,12,0,0,380,39,0,0,0.00,0.00,0.00,0.00,0.00,0,0,0,    5368
150,1596801,RECV,WR,996,993,993,-1410,173,173,173,-1464,0.00,0.00,0.00,0.00,0.00,0.00,0.00,0.00,0,0,0,0,0,0,0,0,0.00,0.00,0.00,0.00,0.00,0,0,0,     1B1
151,1596812,HOVER,UPD,1500,1500,1500,0,1000,1000,1000,0,0.00,0.00,0.00,0.00,0.00,0.00,0.00,0.00,0,0,0,0,0,0,0,0,0.00,0.00,0.00,0.00,0.00,100,400,500,    E22D
152,1596833,RECV,WR,996,993,993,192,173,173,173,-1464,0.00,0.00,0.00,0.00,0.00,0.00,0.00,0.00,0,0,0,0,0,0,0,0,0.00,0.00,0.00,0.00,0.00,0,0,0,    3ED4
153,1596849,HOVER,UPD,1500,1500,1500,0,1000,1000,1000,0,0.00,0.00,0.00,0.00,0.00,0.00,0.00,0.00,0,0,0,0,0,0,0,0,0.00,0.00,0.00,0.00,0.00,100,400,500,    C4F9
154,1596870,HOVER,UPD,1500,1500,1500,0,1000,1000,1000,0,0.00,0.00,0.00,0.00,0.00,0.00,0.00,0.00,0,0,0,0,0,0,0,0,0.00,0.00,0.00,0.00,0.00,100,400,500,     F0B
155,1596870,SDIST,UPD,0,0,0,39,0,0,0,0,17.26,12.94,450.00,428.43,52.32,39.24,450.00,384.60,429,12,0,0,390,39,0,0,0.00,0.00,0.00,0.00,0.00,0,0,0,     762
156,1596871,RECV,WR,996,993,993,-1410,173,173,173,-1464,0.00,0.00,0.00,0.00,0.00,0.00,0.00,0.00,0,0,0,0,0,0,0,0,0.00,0.00,0.00,0.00,0.00,0,0,0,    4B88
157,1596903,HOVER,UPD,1500,1500,1500,0,1000,1000,1000,0,0.00,0.00,0.00,0.00,0.00,0.00,0.00,0.00,0,0,0,0,0,0,0,0,0.00,0.00,0.00,0.00,0.00,100,400,500,    D7F1
158,1596914,RECV,WR,996,993,993,192,173,173,173,-1464,0.00,0.00,0.00,0.00,0.00,0.00,0.00,0.00,0,0,0,0,0,0,0,0,0.00,0.00,0.00,0.00,0.00,0,0,0,     4CD
159,1596940,HOVER,UPD,1500,1500,1500,0,1000,1000,1000,0,0.00,0.00,0.00,0.00,0.00,0.00,0.00,0.00,0,0,0,0,0,0,0,0,0.00,0.00,0.00,0.00,0.00,100,400,500,    82B2
160,1596961,HOVER,UPD,1500,1500,1500,0,1000,1000,1000,0,0.00,0.00,0.00,0.00,0.00,0.00,0.00,0.00,0,0,0,0,0,0,0,0,0.00,0.00,0.00,0.00,0.00,100,400,500,    3AD7
161,1596972,RECV,WR,996,993,993,-1410,173,173,173,-1464,0.00,0.00,0.00,0.00,0.00,0.00,0.00,0.00,0,0,0,0,0,0,0,0,0.00,0.00,0.00,0.00,0.00,0,0,0,    D3D2
162,1596983,SDIST,UPD,0,0,0,38,0,0,0,0,17.27,12.95,450.00,428.42,51.92,38.94,450.00,385.10,428,12,0,0,390,38,0,0,0.00,0.00,0.00,0.00,0.00,0,0,0,    3B41
163,1596993,RECV,WR,996,993,993,192,173,173,173,-1464,0.00,0.00,0.00,0.00,0.00,0.00,0.00,0.00,0,0,0,0,0,0,0,0,0.00,0.00,0.00,0.00,0.00,0,0,0,    8E9A
164,1597004,HOVER,UPD,1500,1500,1500,0,1000,1000,1000,0,0.00,0.00,0.00,0.00,0.00,0.00,0.00,0.00,0,0,0,0,0,0,0,0,0.00,0.00,0.00,0.00,0.00,100,400,500,    3F7F
165,1597036,HOVER,UPD,1500,1500,1500,0,1000,1000,1000,0,0.00,0.00,0.00,0.00,0.00,0.00,0.00,0.00,0,0,0,0,0,0,0,0,0.00,0.00,0.00,0.00,0.00,100,400,500,    1714
166,1597038,RECV,WR,996,993,993,-1410,173,173,173,-1464,0.00,0.00,0.00,0.00,0.00,0.00,0.00,0.00,0,0,0,0,0,0,0,0,0.00,0.00,0.00,0.00,0.00,0,0,0,    51E1
167,1597062,RECV,WR,996,993,993,192,173,173,173,-1464,0.00,0.00,0.00,0.00,0.00,0.00,0.00,0.00,0,0,0,0,0,0,0,0,0.00,0.00,0.00,0.00,0.00,0,0,0,    1EFF
168,1597073,HOVER,UPD,1500,1500,1500,0,1000,1000,1000,0,0.00,0.00,0.00,0.00,0.00,0.00,0.00,0.00,0,0,0,0,0,0,0,0,0.00,0.00,0.00,0.00,0.00,100,400,500,    FFA7
169,1597084,SDIST,UPD,0,0,0,39,0,0,0,0,17.27,12.95,450.00,428.41,52.30,39.23,450.00,384.62,428,12,0,0,380,39,0,0,0.00,0.00,0.00,0.00,0.00,0,0,0,    B3E7
170,1597100,HOVER,UPD,1500,1500,1500,0,1000,1000,1000,0,0.00,0.00,0.00,0.00,0.00,0.00,0.00,0.00,0,0,0,0,0,0,0,0,0.00,0.00,0.00,0.00,0.00,100,400,500,    275D
171,1597111,RECV,WR,996,993,993,-1410,173,173,173,-1464,0.00,0.00,0.00,0.00,0.00,0.00,0.00,0.00,0,0,0,0,0,0,0,0,0.00,0.00,0.00,0.00,0.00,0,0,0,     915
172,1597126,RECV,WR,996,993,993,192,173,173,173,-1464,0.00,0.00,0.00,0.00,0.00,0.00,0.00,0.00,0,0,0,0,0,0,0,0,0.00,0.00,0.00,0.00,0.00,0,0,0,    C5A8
173,1597137,HOVER,UPD,1500,1500,1500,0,1000,1000,1000,0,0.00,0.00,0.00,0.00,0.00,0.00,0.00,0.00,0,0,0,0,0,0,0,0,0.00,0.00,0.00,0.00,0.00,100,400,500,    EC3E
174,1597153,SDIST,UPD,0,0,0,39,0,0,0,0,17.32,12.99,450.00,428.35,52.65,39.48,450.00,384.19,425,12,0,0,380,39,0,0,0.00,0.00,0.00,0.00,0.00,0,0,0,    2D8F
175,1597164,RECV,WR,996,993,993,-1410,173,173,173,-1464,0.00,0.00,0.00,0.00,0.00,0.00,0.00,0.00,0,0,0,0,0,0,0,0,0.00,0.00,0.00,0.00,0.00,0,0,0,    3BA8
176,1597175,HOVER,UPD,1500,1500,1500,0,1000,1000,1000,0,0.00,0.00,0.00,0.00,0.00,0.00,0.00,0.00,0,0,0,0,0,0,0,0,0.00,0.00,0.00,0.00,0.00,100,400,500,    8CD5
177,1597196,RECV,WR,996,993,993,192,173,173,173,-1464,0.00,0.00,0.00,0.00,0.00,0.00,0.00,0.00,0,0,0,0,0,0,0,0,0.00,0.00,0.00,0.00,0.00,0,0,0,    3C9F
178,1597212,HOVER,UPD,1500,1500,1500,0,1000,1000,1000,0,0.00,0.00,0.00,0.00,0.00,0.00,0.00,0.00,0,0,0,0,0,0,0,0,0.00,0.00,0.00,0.00,0.00,100,400,500,    C15C
179,1597233,HOVER,UPD,1500,1500,1500,0,1000,1000,1000,0,0.00,0.00,0.00,0.00,0.00,0.00,0.00,0.00,0,0,0,0,0,0,0,0,0.00,0.00,0.00,0.00,0.00,100,400,500,    7939
180,1597244,RECV,WR,996,993,993,-1410,173,173,173,-1464,0.00,0.00,0.00,0.00,0.00,0.00,0.00,0.00,0,0,0,0,0,0,0,0,0.00,0.00,0.00,0.00,0.00,0,0,0,    CA45
181,1597259,SDIST,UPD,0,0,0,39,0,0,0,0,17.31,12.98,450.00,428.36,52.22,39.16,450.00,384.73,429,12,0,0,390,39,0,0,0.00,0.00,0.00,0.00,0.00,0,0,0,    66F5
182,1597270,HOVER,UPD,1500,1500,1500,0,1000,1000,1000,0,0.00,0.00,0.00,0.00,0.00,0.00,0.00,0.00,0,0,0,0,0,0,0,0,0.00,0.00,0.00,0.00,0.00,100,400,500,    2C7A
183,1597260,RECV,WR,996,993,993,192,173,173,173,-1464,0.00,0.00,0.00,0.00,0.00,0.00,0.00,0.00,0,0,0,0,0,0,0,0,0.00,0.00,0.00,0.00,0.00,0,0,0,    35A9
184,1597297,HOVER,UPD,1500,1500,1500,0,1000,1000,1000,0,0.00,0.00,0.00,0.00,0.00,0.00,0.00,0.00,0,0,0,0,0,0,0,0,0.00,0.00,0.00,0.00,0.00,100,400,500,    3522
185,1597318,HOVER,UPD,1500,1500,1500,0,1000,1000,1000,0,0.00,0.00,0.00,0.00,0.00,0.00,0.00,0.00,0,0,0,0,0,0,0,0,0.00,0.00,0.00,0.00,0.00,100,400,500,    D9EF
186,1597329,RECV,WR,996,993,993,-1410,173,173,173,-1464,0.00,0.00,0.00,0.00,0.00,0.00,0.00,0.00,0,0,0,0,0,0,0,0,0.00,0.00,0.00,0.00,0.00,0,0,0,    3147
187,1597344,RECV,WR,996,993,993,192,173,173,173,-1464,0.00,0.00,0.00,0.00,0.00,0.00,0.00,0.00,0,0,0,0,0,0,0,0,0.00,0.00,0.00,0.00,0.00,0,0,0,    E92E
188,1597355,HOVER,UPD,1500,1500,1500,0,1000,1000,1000,0,0.00,0.00,0.00,0.00,0.00,0.00,0.00,0.00,0,0,0,0,0,0,0,0,0.00,0.00,0.00,0.00,0.00,100,400,500,    8C3D
189,1597355,SDIST,UPD,0,0,0,39,0,0,0,0,17.32,12.99,450.00,428.35,52.57,39.43,450.00,384.29,428,12,0,0,380,39,0,0,0.00,0.00,0.00,0.00,0.00,0,0,0,    4476
190,1597382,HOVER,UPD,1500,1500,1500,0,1000,1000,1000,0,0.00,0.00,0.00,0.00,0.00,0.00,0.00,0.00,0,0,0,0,0,0,0,0,0.00,0.00,0.00,0.00,0.00,100,400,500,    D65E
191,1597393,RECV,WR,996,993,993,-1410,173,173,173,-1464,0.00,0.00,0.00,0.00,0.00,0.00,0.00,0.00,0,0,0,0,0,0,0,0,0.00,0.00,0.00,0.00,0.00,0,0,0,    2FA2
192,1597408,RECV,WR,996,993,993,192,173,173,173,-1464,0.00,0.00,0.00,0.00,0.00,0.00,0.00,0.00,0,0,0,0,0,0,0,0,0.00,0.00,0.00,0.00,0.00,0,0,0,    AE93
193,1597419,HOVER,UPD,1500,1500,1500,0,1000,1000,1000,0,0.00,0.00,0.00,0.00,0.00,0.00,0.00,0.00,0,0,0,0,0,0,0,0,0.00,0.00,0.00,0.00,0.00,100,400,500,    A58B
194,1597435,SDIST,UPD,0,0,0,39,0,0,0,0,17.32,12.99,450.00,428.35,52.15,39.11,450.00,384.82,428,12,0,0,390,39,0,0,0.00,0.00,0.00,0.00,0.00,0,0,0,    90DF
195,1597446,RECV,WR,996,993,993,-1410,173,173,173,-1464,0.00,0.00,0.00,0.00,0.00,0.00,0.00,0.00,0,0,0,0,0,0,0,0,0.00,0.00,0.00,0.00,0.00,0,0,0,    3AAF
196,1597457,HOVER,UPD,1500,1500,1500,0,1000,1000,1000,0,0.00,0.00,0.00,0.00,0.00,0.00,0.00,0.00,0,0,0,0,0,0,0,0,0.00,0.00,0.00,0.00,0.00,100,400,500,    AEA1
197,1597478,RECV,WR,996,993,993,192,173,173,173,-1464,0.00,0.00,0.00,0.00,0.00,0.00,0.00,0.00,0,0,0,0,0,0,0,0,0.00,0.00,0.00,0.00,0.00,0,0,0,    5804
198,1597494,HOVER,UPD,1500,1500,1500,0,1000,1000,1000,0,0.00,0.00,0.00,0.00,0.00,0.00,0.00,0.00,0,0,0,0,0,0,0,0,0.00,0.00,0.00,0.00,0.00,100,400,500,    EC94
199,1597515,HOVER,UPD,1500,1500,1500,0,1000,1000,1000,0,0.00,0.00,0.00,0.00,0.00,0.00,0.00,0.00,0,0,0,0,0,0,0,0,0.00,0.00,0.00,0.00,0.00,100,400,500,      C8
200,1597516,RECV,WR,996,993,993,-1410,173,173,173,-1464,0.00,0.00,0.00,0.00,0.00,0.00,0.00,0.00,0,0,0,0,0,0,0,0,0.00,0.00,0.00,0.00,0.00,0,0,0,     109
201,1597515,SDIST,UPD,0,0,0,39,0,0,0,0,17.30,12.97,450.00,428.38,52.51,39.38,450.00,384.37,430,12,0,0,380,39,0,0,0.00,0.00,0.00,0.00,0.00,0,0,0,    4161
202,1597547,RECV,WR,996,993,993,192,173,173,173,-1464,0.00,0.00,0.00,0.00,0.00,0.00,0.00,0.00,0,0,0,0,0,0,0,0,0.00,0.00,0.00,0.00,0.00,0,0,0,    AF57
203,1597568,HOVER,UPD,1500,1500,1500,0,1000,1000,1000,0,0.00,0.00,0.00,0.00,0.00,0.00,0.00,0.00,0,0,0,0,0,0,0,0,0.00,0.00,0.00,0.00,0.00,100,400,500,    1621
204,1597589,HOVER,UPD,1500,1500,1500,0,1000,1000,1000,0,0.00,0.00,0.00,0.00,0.00,0.00,0.00,0.00,0,0,0,0,0,0,0,0,0.00,0.00,0.00,0.00,0.00,100,400,500,    B289
205,1597591,RECV,WR,996,993,993,-1410,173,173,173,-1464,0.00,0.00,0.00,0.00,0.00,0.00,0.00,0.00,0,0,0,0,0,0,0,0,0.00,0.00,0.00,0.00,0.00,0,0,0,    DF48
206,1597615,RECV,WR,996,993,993,192,173,173,173,-1464,0.00,0.00,0.00,0.00,0.00,0.00,0.00,0.00,0,0,0,0,0,0,0,0,0.00,0.00,0.00,0.00,0.00,0,0,0,    3807
207,1597626,HOVER,UPD,1500,1500,1500,0,1000,1000,1000,0,0.00,0.00,0.00,0.00,0.00,0.00,0.00,0.00,0,0,0,0,0,0,0,0,0.00,0.00,0.00,0.00,0.00,100,400,500,    5EAC
208,1597637,SDIST,UPD,0,0,0,39,0,0,0,0,17.27,12.95,450.00,428.41,52.09,39.07,450.00,384.89,430,12,0,0,390,39,0,0,0.00,0.00,0.00,0.00,0.00,0,0,0,    A188
209,1597653,HOVER,UPD,1500,1500,1500,0,1000,1000,1000,0,0.00,0.00,0.00,0.00,0.00,0.00,0.00,0.00,0,0,0,0,0,0,0,0,0.00,0.00,0.00,0.00,0.00,100,400,500,    F524
210,1597664,RECV,WR,996,993,993,-1410,173,173,173,-1464,0.00,0.00,0.00,0.00,0.00,0.00,0.00,0.00,0,0,0,0,0,0,0,0,0.00,0.00,0.00,0.00,0.00,0,0,0,    EB26
211,1597679,RECV,WR,996,993,993,192,173,173,173,-1464,0.00,0.00,0.00,0.00,0.00,0.00,0.00,0.00,0,0,0,0,0,0,0,0,0.00,0.00,0.00,0.00,0.00,0,0,0,    95CC
212,1597690,HOVER,UPD,1500,1500,1500,0,1000,1000,1000,0,0.00,0.00,0.00,0.00,0.00,0.00,0.00,0.00,0,0,0,0,0,0,0,0,0.00,0.00,0.00,0.00,0.00,100,400,500,    B711
213,1597706,SDIST,UPD,0,0,0,39,0,0,0,0,17.25,12.94,450.00,428.44,52.46,39.34,450.00,384.43,430,12,0,0,380,39,0,0,0.00,0.00,0.00,0.00,0.00,0,0,0,    6AE0
214,1597717,RECV,WR,996,993,993,-1410,173,173,173,-1464,0.00,0.00,0.00,0.00,0.00,0.00,0.00,0.00,0,0,0,0,0,0,0,0,0.00,0.00,0.00,0.00,0.00,0,0,0,    3945
215,1597728,HOVER,UPD,1500,1500,1500,0,1000,1000,1000,0,0.00,0.00,0.00,0.00,0.00,0.00,0.00,0.00,0,0,0,0,0,0,0,0,0.00,0.00,0.00,0.00,0.00,100,400,500,    90BF
216,1597749,RECV,WR,996,993,993,192,173,173,173,-1464,0.00,0.00,0.00,0.00,0.00,0.00,0.00,0.00,0,0,0,0,0,0,0,0,0.00,0.00,0.00,0.00,0.00,0,0,0,    2E1A
217,1597765,HOVER,UPD,1500,1500,1500,0,1000,1000,1000,0,0.00,0.00,0.00,0.00,0.00,0.00,0.00,0.00,0,0,0,0,0,0,0,0,0.00,0.00,0.00,0.00,0.00,100,400,500,    C56D
218,1597786,HOVER,UPD,1500,1500,1500,0,1000,1000,1000,0,0.00,0.00,0.00,0.00,0.00,0.00,0.00,0.00,0,0,0,0,0,0,0,0,0.00,0.00,0.00,0.00,0.00,100,400,500,     A95
219,1597797,RECV,WR,996,993,993,-1410,173,173,173,-1464,0.00,0.00,0.00,0.00,0.00,0.00,0.00,0.00,0,0,0,0,0,0,0,0,0.00,0.00,0.00,0.00,0.00,0,0,0,    FFDD
220,1597812,SDIST,UPD,0,0,0,39,0,0,0,0,17.21,12.91,450.00,428.49,52.04,39.03,450.00,384.95,431,12,0,0,390,39,0,0,0.00,0.00,0.00,0.00,0.00,0,0,0,    E2F1
221,1597823,HOVER,UPD,1500,1500,1500,0,1000,1000,1000,0,0.00,0.00,0.00,0.00,0.00,0.00,0.00,0.00,0,0,0,0,0,0,0,0,0.00,0.00,0.00,0.00,0.00,100,400,500,    2E3C
222,1597813,RECV,WR,996,993,993,192,173,173,173,-1464,0.00,0.00,0.00,0.00,0.00,0.00,0.00,0.00,0,0,0,0,0,0,0,0,0.00,0.00,0.00,0.00,0.00,0,0,0,    D4A8
223,1597850,HOVER,UPD,1500,1500,1500,0,1000,1000,1000,0,0.00,0.00,0.00,0.00,0.00,0.00,0.00,0.00,0,0,0,0,0,0,0,0,0.00,0.00,0.00,0.00,0.00,100,400,500,    3844
224,1597871,HOVER,UPD,1500,1500,1500,0,1000,1000,1000,0,0.00,0.00,0.00,0.00,0.00,0.00,0.00,0.00,0,0,0,0,0,0,0,0,0.00,0.00,0.00,0.00,0.00,100,400,500,    8021
225,1597882,RECV,WR,996,993,993,-1410,173,173,173,-1464,0.00,0.00,0.00,0.00,0.00,0.00,0.00,0.00,0,0,0,0,0,0,0,0,0.00,0.00,0.00,0.00,0.00,0,0,0,    6E8E
226,1597897,RECV,WR,996,993,993,192,173,173,173,-1464,0.00,0.00,0.00,0.00,0.00,0.00,0.00,0.00,0,0,0,0,0,0,0,0,0.00,0.00,0.00,0.00,0.00,0,0,0,    B861
227,1597908,HOVER,UPD,1500,1500,1500,0,1000,1000,1000,0,0.00,0.00,0.00,0.00,0.00,0.00,0.00,0.00,0,0,0,0,0,0,0,0,0.00,0.00,0.00,0.00,0.00,100,400,500,    8EEA
228,1597908,SDIST,UPD,0,0,0,39,0,0,0,0,17.22,12.91,450.00,428.48,52.41,39.31,450.00,384.49,428,12,0,0,380,39,0,0,0.00,0.00,0.00,0.00,0.00,0,0,0,    8D94
229,1597935,HOVER,UPD,1500,1500,1500,0,1000,1000,1000,0,0.00,0.00,0.00,0.00,0.00,0.00,0.00,0.00,0,0,0,0,0,0,0,0,0.00,0.00,0.00,0.00,0.00,100,400,500,    93B8
230,1597946,RECV,WR,996,993,993,-1410,173,173,173,-1464,0.00,0.00,0.00,0.00,0.00,0.00,0.00,0.00,0,0,0,0,0,0,0,0,0.00,0.00,0.00,0.00,0.00,0,0,0,    4BD9
231,1597961,RECV,WR,996,993,993,192,173,173,173,-1464,0.00,0.00,0.00,0.00,0.00,0.00,0.00,0.00,0,0,0,0,0,0,0,0,0.00,0.00,0.00,0.00,0.00,0,0,0,    D10A
232,1597972,HOVER,UPD,1500,1500,1500,0,1000,1000,1000,0,0.00,0.00,0.00,0.00,0.00,0.00,0.00,0.00,0,0,0,0,0,0,0,0,0.00,0.00,0.00,0.00,0.00,100,400,500,    105B
233,1597988,SDIST,UPD,0,0,0,38,0,0,0,0,17.21,12.91,450.00,428.49,52.00,39.00,450.00,385.00,429,12,0,0,390,38,0,0,0.00,0.00,0.00,0.00,0.00,0,0,0,    3137
234,1597999,RECV,WR,996,993,993,-1410,173,173,173,-1464,0.00,0.00,0.00,0.00,0.00,0.00,0.00,0.00,0,0,0,0,0,0,0,0,0.00,0.00,0.00,0.00,0.00,0,0,0,    7F52
235,1598010,HOVER,UPD,1500,1500,1500,0,1000,1000,1000,0,0.00,0.00,0.00,0.00,0.00,0.00,0.00,0.00,0,0,0,0,0,0,0,0,0.00,0.00,0.00,0.00,0.00,100,400,500,    B671
236,1598031,RECV,WR,996,993,993,192,173,173,173,-1464,0.00,0.00,0.00,0.00,0.00,0.00,0.00,0.00,0,0,0,0,0,0,0,0,0.00,0.00,0.00,0.00,0.00,0,0,0,    70F8
237,1598047,HOVER,UPD,1500,1500,1500,0,1000,1000,1000,0,0.00,0.00,0.00,0.00,0.00,0.00,0.00,0.00,0,0,0,0,0,0,0,0,0.00,0.00,0.00,0.00,0.00,100,400,500,    FB64
238,1598068,HOVER,UPD,1500,1500,1500,0,1000,1000,1000,0,0.00,0.00,0.00,0.00,0.00,0.00,0.00,0.00,0,0,0,0,0,0,0,0,0.00,0.00,0.00,0.00,0.00,100,400,500,    4390
239,1598068,SDIST,UPD,0,0,0,39,0,0,0,0,17.20,12.90,450.00,428.50,52.38,39.28,450.00,384.53,429,12,0,0,380,39,0,0,0.00,0.00,0.00,0.00,0.00,0,0,0,    A338
240,1598069,RECV,WR,996,993,993,-1410,173,173,173,-1464,0.00,0.00,0.00,0.00,0.00,0.00,0.00,0.00,0,0,0,0,0,0,0,0,0.00,0.00,0.00,0.00,0.00,0,0,0,    697E
241,1598101,HOVER,UPD,1500,1500,1500,0,1000,1000,1000,0,0.00,0.00,0.00,0.00,0.00,0.00,0.00,0.00,0,0,0,0,0,0,0,0,0.00,0.00,0.00,0.00,0.00,100,400,500,    83AD
242,1598112,RECV,WR,996,993,993,192,173,173,173,-1464,0.00,0.00,0.00,0.00,0.00,0.00,0.00,0.00,0,0,0,0,0,0,0,0,0.00,0.00,0.00,0.00,0.00,0,0,0,    DCF7
243,1598138,HOVER,UPD,1500,1500,1500,0,1000,1000,1000,0,0.00,0.00,0.00,0.00,0.00,0.00,0.00,0.00,0,0,0,0,0,0,0,0,0.00,0.00,0.00,0.00,0.00,100,400,500,    485F
244,1598159,HOVER,UPD,1500,1500,1500,0,1000,1000,1000,0,0.00,0.00,0.00,0.00,0.00,0.00,0.00,0.00,0,0,0,0,0,0,0,0,0.00,0.00,0.00,0.00,0.00,100,400,500,    FB81
245,1598170,RECV,WR,996,993,993,-1410,173,173,173,-1464,0.00,0.00,0.00,0.00,0.00,0.00,0.00,0.00,0,0,0,0,0,0,0,0,0.00,0.00,0.00,0.00,0.00,0,0,0,    18FF
246,1598181,SDIST,UPD,0,0,0,38,0,0,0,0,17.18,12.88,450.00,428.53,51.96,38.97,450.00,385.04,430,12,0,0,390,38,0,0,0.00,0.00,0.00,0.00,0.00,0,0,0,    5C3B
247,1598192,RECV,WR,996,993,993,192,173,173,173,-1464,0.00,0.00,0.00,0.00,0.00,0.00,0.00,0.00,0,0,0,0,0,0,0,0,0.00,0.00,0.00,0.00,0.00,0,0,0,    2628
248,1598202,HOVER,UPD,1500,1500,1500,0,1000,1000,1000,0,0.00,0.00,0.00,0.00,0.00,0.00,0.00,0.00,0,0,0,0,0,0,0,0,0.00,0.00,0.00,0.00,0.00,100,400,500,    9EF2
249,1598234,HOVER,UPD,1500,1500,1500,0,1000,1000,1000,0,0.00,0.00,0.00,0.00,0.00,0.00,0.00,0.00,0,0,0,0,0,0,0,0,0.00,0.00,0.00,0.00,0.00,100,400,500,    6039
250,1598236,RECV,WR,996,993,993,-1410,173,173,173,-1464,0.00,0.00,0.00,0.00,0.00,0.00,0.00,0.00,0,0,0,0,0,0,0,0,0.00,0.00,0.00,0.00,0.00,0,0,0,    1B1F
251,1598260,RECV,WR,996,993,993,192,173,173,173,-1464,0.00,0.00,0.00,0.00,0.00,0.00,0.00,0.00,0,0,0,0,0,0,0,0,0.00,0.00,0.00,0.00,0.00,0,0,0,    B908
252,1598271,HOVER,UPD,1500,1500,1500,0,1000,1000,1000,0,0.00,0.00,0.00,0.00,0.00,0.00,0.00,0.00,0,0,0,0,0,0,0,0,0.00,0.00,0.00,0.00,0.00,100,400,500,    888A
253,1598282,SDIST,UPD,0,0,0,39,0,0,0,0,17.19,12.89,450.00,428.52,52.35,39.26,450.00,384.57,428,12,0,0,380,39,0,0,0.00,0.00,0.00,0.00,0.00,0,0,0,    9EA5
254,1598298,HOVER,UPD,1500,1500,1500,0,1000,1000,1000,0,0.00,0.00,0.00,0.00,0.00,0.00,0.00,0.00,0,0,0,0,0,0,0,0,0.00,0.00,0.00,0.00,0.00,100,400,500,    9143
255,1598309,RECV,WR,996,993,993,-1410,173,173,173,-1464,0.00,0.00,0.00,0.00,0.00,0.00,0.00,0.00,0,0,0,0,0,0,0,0,0.00,0.00,0.00,0.00,0.00,0,0,0,    FBDF
256,1598324,RECV,WR,996,993,993,192,173,173,173,-1464,0.00,0.00,0.00,0.00,0.00,0.00,0.00,0.00,0,0,0,0,0,0,0,0,0.00,0.00,0.00,0.00,0.00,0,0,0,    625F
257,1598335,HOVER,UPD,1500,1500,1500,0,1000,1000,1000,0,0.00,0.00,0.00,0.00,0.00,0.00,0.00,0.00,0,0,0,0,0,0,0,0,0.00,0.00,0.00,0.00,0.00,100,400,500,    9B13
258,1598351,SDIST,UPD,0,0,0,39,0,0,0,0,17.19,12.89,450.00,428.51,52.69,39.52,450.00,384.14,428,12,0,0,380,39,0,0,0.00,0.00,0.00,0.00,0.00,0,0,0,    AEA4
259,1598362,RECV,WR,996,993,993,-1410,173,173,173,-1464,0.00,0.00,0.00,0.00,0.00,0.00,0.00,0.00,0,0,0,0,0,0,0,0,0.00,0.00,0.00,0.00,0.00,0,0,0,    E003
260,1598373,HOVER,UPD,1500,1500,1500,0,1000,1000,1000,0,0.00,0.00,0.00,0.00,0.00,0.00,0.00,0.00,0,0,0,0,0,0,0,0,0.00,0.00,0.00,0.00,0.00,100,400,500,    2D58
261,1598394,RECV,WR,996,993,993,192,173,173,173,-1464,0.00,0.00,0.00,0.00,0.00,0.00,0.00,0.00,0,0,0,0,0,0,0,0,0.00,0.00,0.00,0.00,0.00,0,0,0,    9B68
262,1598410,HOVER,UPD,1500,1500,1500,0,1000,1000,1000,0,0.00,0.00,0.00,0.00,0.00,0.00,0.00,0.00,0,0,0,0,0,0,0,0,0.00,0.00,0.00,0.00,0.00,100,400,500,    BC1A
263,1598431,HOVER,UPD,1500,1500,1500,0,1000,1000,1000,0,0.00,0.00,0.00,0.00,0.00,0.00,0.00,0.00,0,0,0,0,0,0,0,0,0.00,0.00,0.00,0.00,0.00,100,400,500,     47F
264,1598442,RECV,WR,996,993,993,-1410,173,173,173,-1464,0.00,0.00,0.00,0.00,0.00,0.00,0.00,0.00,0,0,0,0,0,0,0,0,0.00,0.00,0.00,0.00,0.00,0,0,0,     12B
265,1598457,SDIST,UPD,0,0,0,39,0,0,0,0,17.15,12.87,450.00,428.56,52.25,39.19,450.00,384.68,431,12,0,0,390,39,0,0,0.00,0.00,0.00,0.00,0.00,0,0,0,    AFC2
266,1598468,HOVER,UPD,1500,1500,1500,0,1000,1000,1000,0,0.00,0.00,0.00,0.00,0.00,0.00,0.00,0.00,0,0,0,0,0,0,0,0,0.00,0.00,0.00,0.00,0.00,100,400,500,    49FB
267,1598458,RECV,WR,996,993,993,192,173,173,173,-1464,0.00,0.00,0.00,0.00,0.00,0.00,0.00,0.00,0,0,0,0,0,0,0,0,0.00,0.00,0.00,0.00,0.00,0,0,0,    260A
268,1598495,HOVER,UPD,1500,1500,1500,0,1000,1000,1000,0,0.00,0.00,0.00,0.00,0.00,0.00,0.00,0.00,0,0,0,0,0,0,0,0,0.00,0.00,0.00,0.00,0.00,100,400,500,    4864
269,1598516,HOVER,UPD,1500,1500,1500,0,1000,1000,1000,0,0.00,0.00,0.00,0.00,0.00,0.00,0.00,0.00,0,0,0,0,0,0,0,0,0.00,0.00,0.00,0.00,0.00,100,400,500,    CF68
270,1598527,RECV,WR,996,993,993,-1410,173,173,173,-1464,0.00,0.00,0.00,0.00,0.00,0.00,0.00,0.00,0,0,0,0,0,0,0,0,0.00,0.00,0.00,0.00,0.00,0,0,0,    6B7C
271,1598542,RECV,WR,996,993,993,192,173,173,173,-1464,0.00,0.00,0.00,0.00,0.00,0.00,0.00,0.00,0,0,0,0,0,0,0,0,0.00,0.00,0.00,0.00,0.00,0,0,0,    1875
272,1598553,HOVER,UPD,1500,1500,1500,0,1000,1000,1000,0,0.00,0.00,0.00,0.00,0.00,0.00,0.00,0.00,0,0,0,0,0,0,0,0,0.00,0.00,0.00,0.00,0.00,100,400,500,    27DB
273,1598553,SDIST,UPD,0,0,0,39,0,0,0,0,17.16,12.87,450.00,428.55,52.61,39.45,450.00,384.24,428,12,0,0,380,39,0,0,0.00,0.00,0.00,0.00,0.00,0,0,0,    4EEE
274,1598580,HOVER,UPD,1500,1500,1500,0,1000,1000,1000,0,0.00,0.00,0.00,0.00,0.00,0.00,0.00,0.00,0,0,0,0,0,0,0,0,0.00,0.00,0.00,0.00,0.00,100,400,500,    AB18
275,1598591,RECV,WR,996,993,993,-1410,173,173,173,-1464,0.00,0.00,0.00,0.00,0.00,0.00,0.00,0.00,0,0,0,0,0,0,0,0,0.00,0.00,0.00,0.00,0.00,0,0,0,    2476
276,1598606,RECV,WR,996,993,993,192,173,173,173,-1464,0.00,0.00,0.00,0.00,0.00,0.00,0.00,0.00,0,0,0,0,0,0,0,0,0.00,0.00,0.00,0.00,0.00,0,0,0,    A37F
277,1598617,HOVER,UPD,1500,1500,1500,0,1000,1000,1000,0,0.00,0.00,0.00,0.00,0.00,0.00,0.00,0.00,0,0,0,0,0,0,0,0,0.00,0.00,0.00,0.00,0.00,100,400,500,    B967
278,1598633,SDIST,UPD,0,0,0,39,0,0,0,0,17.16,12.87,450.00,428.55,52.92,39.69,450.00,383.85,429,12,0,0,380,39,0,0,0.00,0.00,0.00,0.00,0.00,0,0,0,    A192
279,1598644,RECV,WR,996,993,993,-1410,173,173,173,-1464,0.00,0.00,0.00,0.00,0.00,0.00,0.00,0.00,0,0,0,0,0,0,0,0,0.00,0.00,0.00,0.00,0.00,0,0,0,    21BE
280,1598655,HOVER,UPD,1500,1500,1500,0,1000,1000,1000,0,0.00,0.00,0.00,0.00,0.00,0.00,0.00,0.00,0,0,0,0,0,0,0,0,0.00,0.00,0.00,0.00,0.00,100,400,500,    D98C
281,1598676,RECV,WR,996,993,993,192,173,173,173,-1464,0.00,0.00,0.00,0.00,0.00,0.00,0.00,0.00,0,0,0,0,0,0,0,0,0.00,0.00,0.00,0.00,0.00,0,0,0,    55E8
282,1598692,HOVER,UPD,1500,1500,1500,0,1000,1000,1000,0,0.00,0.00,0.00,0.00,0.00,0.00,0.00,0.00,0,0,0,0,0,0,0,0,0.00,0.00,0.00,0.00,0.00,100,400,500,    4D19
283,1598713,HOVER,UPD,1500,1500,1500,0,1000,1000,1000,0,0.00,0.00,0.00,0.00,0.00,0.00,0.00,0.00,0,0,0,0,0,0,0,0,0.00,0.00,0.00,0.00,0.00,100,400,500,    A145
284,1598714,RECV,WR,996,993,993,-1410,173,173,173,-1464,0.00,0.00,0.00,0.00,0.00,0.00,0.00,0.00,0,0,0,0,0,0,0,0,0.00,0.00,0.00,0.00,0.00,0,0,0,    1A18
285,1598713,SDIST,UPD,0,0,0,39,0,0,0,0,17.16,12.87,450.00,428.54,52.47,39.35,450.00,384.41,428,12,0,0,390,39,0,0,0.00,0.00,0.00,0.00,0.00,0,0,0,    DF6E
286,1598745,RECV,WR,996,993,993,192,173,173,173,-1464,0.00,0.00,0.00,0.00,0.00,0.00,0.00,0.00,0,0,0,0,0,0,0,0,0.00,0.00,0.00,0.00,0.00,0,0,0,     8A0
287,1598766,HOVER,UPD,1500,1500,1500,0,1000,1000,1000,0,0.00,0.00,0.00,0.00,0.00,0.00,0.00,0.00,0,0,0,0,0,0,0,0,0.00,0.00,0.00,0.00,0.00,100,400,500,     ACD
288,1598787,HOVER,UPD,1500,1500,1500,0,1000,1000,1000,0,0.00,0.00,0.00,0.00,0.00,0.00,0.00,0.00,0,0,0,0,0,0,0,0,0.00,0.00,0.00,0.00,0.00,100,400,500,    AE65
289,1598789,RECV,WR,996,993,993,-1410,173,173,173,-1464,0.00,0.00,0.00,0.00,0.00,0.00,0.00,0.00,0,0,0,0,0,0,0,0,0.00,0.00,0.00,0.00,0.00,0,0,0,    2D82
290,1598813,RECV,WR,996,993,993,192,173,173,173,-1464,0.00,0.00,0.00,0.00,0.00,0.00,0.00,0.00,0,0,0,0,0,0,0,0,0.00,0.00,0.00,0.00,0.00,0,0,0,    5809
291,1598824,HOVER,UPD,1500,1500,1500,0,1000,1000,1000,0,0.00,0.00,0.00,0.00,0.00,0.00,0.00,0.00,0,0,0,0,0,0,0,0,0.00,0.00,0.00,0.00,0.00,100,400,500,    373C
292,1598835,SDIST,UPD,0,0,0,39,0,0,0,0,17.14,12.86,450.00,428.57,52.05,39.04,450.00,384.94,430,12,0,0,390,39,0,0,0.00,0.00,0.00,0.00,0.00,0,0,0,    94E1
293,1598851,HOVER,UPD,1500,1500,1500,0,1000,1000,1000,0,0.00,0.00,0.00,0.00,0.00,0.00,0.00,0.00,0,0,0,0,0,0,0,0,0.00,0.00,0.00,0.00,0.00,100,400,500,    9CB4
294,1598862,RECV,WR,996,993,993,-1410,173,173,173,-1464,0.00,0.00,0.00,0.00,0.00,0.00,0.00,0.00,0,0,0,0,0,0,0,0,0.00,0.00,0.00,0.00,0.00,0,0,0,     1C2
295,1598877,RECV,WR,996,993,993,192,173,173,173,-1464,0.00,0.00,0.00,0.00,0.00,0.00,0.00,0.00,0,0,0,0,0,0,0,0,0.00,0.00,0.00,0.00,0.00,0,0,0,    C9CF
296,1598888,HOVER,UPD,1500,1500,1500,0,1000,1000,1000,0,0.00,0.00,0.00,0.00,0.00,0.00,0.00,0.00,0,0,0,0,0,0,0,0,0.00,0.00,0.00,0.00,0.00,100,400,500,    C646
297,1598904,SDIST,UPD,0,0,0,38,0,0,0,0,17.17,12.88,450.00,428.54,51.67,38.75,450.00,385.41,427,12,0,0,390,38,0,0,0.00,0.00,0.00,0.00,0.00,0,0,0,    26A1
298,1598915,RECV,WR,996,993,993,-1410,173,173,173,-1464,0.00,0.00,0.00,0.00,0.00,0.00,0.00,0.00,0,0,0,0,0,0,0,0,0.00,0.00,0.00,0.00,0.00,0,0,0,    131B
299,1598926,HOVER,UPD,1500,1500,1500,0,1000,1000,1000,0,0.00,0.00,0.00,0.00,0.00,0.00,0.00,0.00,0,0,0,0,0,0,0,0,0.00,0.00,0.00,0.00,0.00,100,400,500,    92EE
300,1598947,RECV,WR,996,993,993,192,173,173,173,-1464,0.00,0.00,0.00,0.00,0.00,0.00,0.00,0.00,0,0,0,0,0,0,0,0,0.00,0.00,0.00,0.00,0.00,0,0,0,    7219
301,1598963,HOVER,UPD,1500,1500,1500,0,1000,1000,1000,0,0.00,0.00,0.00,0.00,0.00,0.00,0.00,0.00,0,0,0,0,0,0,0,0,0.00,0.00,0.00,0.00,0.00,100,400,500,    7A5D
302,1598984,HOVER,UPD,1500,1500,1500,0,1000,1000,1000,0,0.00,0.00,0.00,0.00,0.00,0.00,0.00,0.00,0,0,0,0,0,0,0,0,0.00,0.00,0.00,0.00,0.00,100,400,500,    6305
303,1598995,RECV,WR,996,993,993,-1410,173,173,173,-1464,0.00,0.00,0.00,0.00,0.00,0.00,0.00,0.00,0,0,0,0,0,0,0,0,0.00,0.00,0.00,0.00,0.00,0,0,0,    D583
304,1599010,SDIST,UPD,0,0,0,38,0,0,0,0,17.16,12.87,450.00,428.55,51.32,38.49,450.00,385.85,429,12,0,0,390,38,0,0,0.00,0.00,0.00,0.00,0.00,0,0,0,    EA9F
305,1599021,HOVER,UPD,1500,1500,1500,0,1000,1000,1000,0,0.00,0.00,0.00,0.00,0.00,0.00,0.00,0.00,0,0,0,0,0,0,0,0,0.00,0.00,0.00,0.00,0.00,100,400,500,    7A60
306,1599011,RECV,WR,996,993,993,192,173,173,173,-1464,0.00,0.00,0.00,0.00,0.00,0.00,0.00,0.00,0,0,0,0,0,0,0,0,0.00,0.00,0.00,0.00,0.00,0,0,0,    9A84
307,1599048,HOVER,UPD,1500,1500,1500,0,1000,1000,1000,0,0.00,0.00,0.00,0.00,0.00,0.00,0.00,0.00,0,0,0,0,0,0,0,0,0.00,0.00,0.00,0.00,0.00,100,400,500,    74DF
308,1599069,HOVER,UPD,1500,1500,1500,0,1000,1000,1000,0,0.00,0.00,0.00,0.00,0.00,0.00,0.00,0.00,0,0,0,0,0,0,0,0,0.00,0.00,0.00,0.00,0.00,100,400,500,    CCBA
309,1599080,RECV,WR,996,993,993,-1410,173,173,173,-1464,0.00,0.00,0.00,0.00,0.00,0.00,0.00,0.00,0,0,0,0,0,0,0,0,0.00,0.00,0.00,0.00,0.00,0,0,0,    A5A3
310,1599095,RECV,WR,996,993,993,192,173,173,173,-1464,0.00,0.00,0.00,0.00,0.00,0.00,0.00,0.00,0,0,0,0,0,0,0,0,0.00,0.00,0.00,0.00,0.00,0,0,0,    F64D
311,1599106,HOVER,UPD,1500,1500,1500,0,1000,1000,1000,0,0.00,0.00,0.00,0.00,0.00,0.00,0.00,0.00,0,0,0,0,0,0,0,0,0.00,0.00,0.00,0.00,0.00,100,400,500,    B177
312,1599106,SDIST,UPD,0,0,0,38,0,0,0,0,17.17,12.88,450.00,428.54,51.76,38.82,450.00,385.30,428,12,0,0,380,38,0,0,0.00,0.00,0.00,0.00,0.00,0,0,0,    C07A
313,1599133,HOVER,UPD,1500,1500,1500,0,1000,1000,1000,0,0.00,0.00,0.00,0.00,0.00,0.00,0.00,0.00,0,0,0,0,0,0,0,0,0.00,0.00,0.00,0.00,0.00,100,400,500,    1144
314,1599144,RECV,WR,996,993,993,-1410,173,173,173,-1464,0.00,0.00,0.00,0.00,0.00,0.00,0.00,0.00,0,0,0,0,0,0,0,0,0.00,0.00,0.00,0.00,0.00,0,0,0,    80F4
315,1599159,RECV,WR,996,993,993,192,173,173,173,-1464,0.00,0.00,0.00,0.00,0.00,0.00,0.00,0.00,0,0,0,0,0,0,0,0,0.00,0.00,0.00,0.00,0.00,0,0,0,    EBC8
316,1599170,HOVER,UPD,1500,1500,1500,0,1000,1000,1000,0,0.00,0.00,0.00,0.00,0.00,0.00,0.00,0.00,0,0,0,0,0,0,0,0,0.00,0.00,0.00,0.00,0.00,100,400,500,    4407
317,1599186,SDIST,UPD,0,0,0,39,0,0,0,0,17.16,12.87,450.00,428.55,52.16,39.12,450.00,384.80,429,12,0,0,380,39,0,0,0.00,0.00,0.00,0.00,0.00,0,0,0,    53CC
318,1599197,RECV,WR,996,993,993,-1410,173,173,173,-1464,0.00,0.00,0.00,0.00,0.00,0.00,0.00,0.00,0,0,0,0,0,0,0,0,0.00,0.00,0.00,0.00,0.00,0,0,0,    E590
319,1599208,HOVER,UPD,1500,1500,1500,0,1000,1000,1000,0,0.00,0.00,0.00,0.00,0.00,0.00,0.00,0.00,0,0,0,0,0,0,0,0,0.00,0.00,0.00,0.00,0.00,100,400,500,    F241
320,1599229,RECV,WR,996,993,993,192,173,173,173,-1464,0.00,0.00,0.00,0.00,0.00,0.00,0.00,0.00,0,0,0,0,0,0,0,0,0.00,0.00,0.00,0.00,0.00,0,0,0,    C53C
321,1599245,HOVER,UPD,1500,1500,1500,0,1000,1000,1000,0,0.00,0.00,0.00,0.00,0.00,0.00,0.00,0.00,0,0,0,0,0,0,0,0,0.00,0.00,0.00,0.00,0.00,100,400,500,    A793
322,1599266,HOVER,UPD,1500,1500,1500,0,1000,1000,1000,0,0.00,0.00,0.00,0.00,0.00,0.00,0.00,0.00,0,0,0,0,0,0,0,0,0.00,0.00,0.00,0.00,0.00,100,400,500,    74A6
323,1599267,RECV,WR,996,993,993,-1410,173,173,173,-1464,0.00,0.00,0.00,0.00,0.00,0.00,0.00,0.00,0,0,0,0,0,0,0,0,0.00,0.00,0.00,0.00,0.00,0,0,0,    A97A
324,1599266,SDIST,UPD,0,0,0,39,0,0,0,0,17.17,12.88,450.00,428.54,52.52,39.39,450.00,384.35,428,12,0,0,380,39,0,0,0.00,0.00,0.00,0.00,0.00,0,0,0,    B737
325,1599298,RECV,WR,996,993,993,192,173,173,173,-1464,0.00,0.00,0.00,0.00,0.00,0.00,0.00,0.00,0,0,0,0,0,0,0,0,0.00,0.00,0.00,0.00,0.00,0,0,0,    919E
326,1599319,HOVER,UPD,1500,1500,1500,0,1000,1000,1000,0,0.00,0.00,0.00,0.00,0.00,0.00,0.00,0.00,0,0,0,0,0,0,0,0,0.00,0.00,0.00,0.00,0.00,100,400,500,    C79D
327,1599340,HOVER,UPD,1500,1500,1500,0,1000,1000,1000,0,0.00,0.00,0.00,0.00,0.00,0.00,0.00,0.00,0,0,0,0,0,0,0,0,0.00,0.00,0.00,0.00,0.00,100,400,500,    8A19
328,1599342,RECV,WR,996,993,993,-1410,173,173,173,-1464,0.00,0.00,0.00,0.00,0.00,0.00,0.00,0.00,0,0,0,0,0,0,0,0,0.00,0.00,0.00,0.00,0.00,0,0,0,    A061
329,1599366,RECV,WR,996,993,993,192,173,173,173,-1464,0.00,0.00,0.00,0.00,0.00,0.00,0.00,0.00,0,0,0,0,0,0,0,0,0.00,0.00,0.00,0.00,0.00,0,0,0,    C4F8
330,1599377,HOVER,UPD,1500,1500,1500,0,1000,1000,1000,0,0.00,0.00,0.00,0.00,0.00,0.00,0.00,0.00,0,0,0,0,0,0,0,0,0.00,0.00,0.00,0.00,0.00,100,400,500,    417A
331,1599388,SDIST,UPD,0,0,0,39,0,0,0,0,17.18,12.88,450.00,428.53,52.10,39.07,450.00,384.88,428,12,0,0,390,39,0,0,0.00,0.00,0.00,0.00,0.00,0,0,0,    CAA8
332,1599404,HOVER,UPD,1500,1500,1500,0,1000,1000,1000,0,0.00,0.00,0.00,0.00,0.00,0.00,0.00,0.00,0,0,0,0,0,0,0,0,0.00,0.00,0.00,0.00,0.00,100,400,500,    1ECE
333,1599415,RECV,WR,996,993,993,-1410,173,173,173,-1464,0.00,0.00,0.00,0.00,0.00,0.00,0.00,0.00,0,0,0,0,0,0,0,0,0.00,0.00,0.00,0.00,0.00,0,0,0,    13A9
334,1599430,RECV,WR,996,993,993,192,173,173,173,-1464,0.00,0.00,0.00,0.00,0.00,0.00,0.00,0.00,0,0,0,0,0,0,0,0,0.00,0.00,0.00,0.00,0.00,0,0,0,     504
335,1599441,HOVER,UPD,1500,1500,1500,0,1000,1000,1000,0,0.00,0.00,0.00,0.00,0.00,0.00,0.00,0.00,0,0,0,0,0,0,0,0,0.00,0.00,0.00,0.00,0.00,100,400,500,    F67D
336,1599457,SDIST,UPD,0,0,0,38,0,0,0,0,17.16,12.87,450.00,428.56,51.71,38.78,450.00,385.36,430,12,0,0,390,38,0,0,0.00,0.00,0.00,0.00,0.00,0,0,0,    C492
337,1599468,RECV,WR,996,993,993,-1410,173,173,173,-1464,0.00,0.00,0.00,0.00,0.00,0.00,0.00,0.00,0,0,0,0,0,0,0,0,0.00,0.00,0.00,0.00,0.00,0,0,0,    B041
338,1599479,HOVER,UPD,1500,1500,1500,0,1000,1000,1000,0,0.00,0.00,0.00,0.00,0.00,0.00,0.00,0.00,0,0,0,0,0,0,0,0,0.00,0.00,0.00,0.00,0.00,100,400,500,     827
339,1599500,RECV,WR,996,993,993,192,173,173,173,-1464,0.00,0.00,0.00,0.00,0.00,0.00,0.00,0.00,0,0,0,0,0,0,0,0,0.00,0.00,0.00,0.00,0.00,0,0,0,    BED2
340,1599516,HOVER,UPD,1500,1500,1500,0,1000,1000,1000,0,0.00,0.00,0.00,0.00,0.00,0.00,0.00,0.00,0,0,0,0,0,0,0,0,0.00,0.00,0.00,0.00,0.00,100,400,500,    75EA
341,1599537,HOVER,UPD,1500,1500,1500,0,1000,1000,1000,0,0.00,0.00,0.00,0.00,0.00,0.00,0.00,0.00,0,0,0,0,0,0,0,0,0.00,0.00,0.00,0.00,0.00,100,400,500,    CD8F
342,1599548,RECV,WR,996,993,993,-1410,173,173,173,-1464,0.00,0.00,0.00,0.00,0.00,0.00,0.00,0.00,0,0,0,0,0,0,0,0,0.00,0.00,0.00,0.00,0.00,0,0,0,    C1DE
343,1599563,SDIST,UPD,0,0,0,39,0,0,0,0,17.13,12.85,450.00,428.58,52.12,39.09,450.00,384.86,430,12,0,0,380,39,0,0,0.00,0.00,0.00,0.00,0.00,0,0,0,    975E
344,1599574,HOVER,UPD,1500,1500,1500,0,1000,1000,1000,0,0.00,0.00,0.00,0.00,0.00,0.00,0.00,0.00,0,0,0,0,0,0,0,0,0.00,0.00,0.00,0.00,0.00,100,400,500,    98CC
345,1599564,RECV,WR,996,993,993,192,173,173,173,-1464,0.00,0.00,0.00,0.00,0.00,0.00,0.00,0.00,0,0,0,0,0,0,0,0,0.00,0.00,0.00,0.00,0.00,0,0,0,    2F14
346,1599601,HOVER,UPD,1500,1500,1500,0,1000,1000,1000,0,0.00,0.00,0.00,0.00,0.00,0.00,0.00,0.00,0,0,0,0,0,0,0,0,0.00,0.00,0.00,0.00,0.00,100,400,500,    70E3
347,1599622,HOVER,UPD,1500,1500,1500,0,1000,1000,1000,0,0.00,0.00,0.00,0.00,0.00,0.00,0.00,0.00,0,0,0,0,0,0,0,0,0.00,0.00,0.00,0.00,0.00,100,400,500,    A3D6
348,1599633,RECV,WR,996,993,993,-1410,173,173,173,-1464,0.00,0.00,0.00,0.00,0.00,0.00,0.00,0.00,0,0,0,0,0,0,0,0,0.00,0.00,0.00,0.00,0.00,0,0,0,     29A
349,1599648,RECV,WR,996,993,993,192,173,173,173,-1464,0.00,0.00,0.00,0.00,0.00,0.00,0.00,0.00,0,0,0,0,0,0,0,0,0.00,0.00,0.00,0.00,0.00,0,0,0,    AFC3
350,1599659,HOVER,UPD,1500,1500,1500,0,1000,1000,1000,0,0.00,0.00,0.00,0.00,0.00,0.00,0.00,0.00,0,0,0,0,0,0,0,0,0.00,0.00,0.00,0.00,0.00,100,400,500,     8CF
351,1599659,SDIST,UPD,0,0,0,39,0,0,0,0,17.13,12.85,450.00,428.59,52.48,39.36,450.00,384.40,429,12,0,0,380,39,0,0,0.00,0.00,0.00,0.00,0.00,0,0,0,    BAE5
352,1599686,HOVER,UPD,1500,1500,1500,0,1000,1000,1000,0,0.00,0.00,0.00,0.00,0.00,0.00,0.00,0.00,0,0,0,0,0,0,0,0,0.00,0.00,0.00,0.00,0.00,100,400,500,    EFCD
353,1599697,RECV,WR,996,993,993,-1410,173,173,173,-1464,0.00,0.00,0.00,0.00,0.00,0.00,0.00,0.00,0,0,0,0,0,0,0,0,0.00,0.00,0.00,0.00,0.00,0,0,0,    351E
354,1599712,RECV,WR,996,993,993,192,173,173,173,-1464,0.00,0.00,0.00,0.00,0.00,0.00,0.00,0.00,0,0,0,0,0,0,0,0,0.00,0.00,0.00,0.00,0.00,0,0,0,    64C3
355,1599723,HOVER,UPD,1500,1500,1500,0,1000,1000,1000,0,0.00,0.00,0.00,0.00,0.00,0.00,0.00,0.00,0,0,0,0,0,0,0,0,0.00,0.00,0.00,0.00,0.00,100,400,500,    58FC
356,1599739,SDIST,UPD,0,0,0,39,0,0,0,0,17.14,12.85,450.00,428.58,52.81,39.61,450.00,383.98,428,12,0,0,380,39,0,0,0.00,0.00,0.00,0.00,0.00,0,0,0,    1414
357,1599750,RECV,WR,996,993,993,-1410,173,173,173,-1464,0.00,0.00,0.00,0.00,0.00,0.00,0.00,0.00,0,0,0,0,0,0,0,0,0.00,0.00,0.00,0.00,0.00,0,0,0,    C82A
358,1599761,HOVER,UPD,1500,1500,1500,0,1000,1000,1000,0,0.00,0.00,0.00,0.00,0.00,0.00,0.00,0.00,0,0,0,0,0,0,0,0,0.00,0.00,0.00,0.00,0.00,100,400,500,    3817
359,1599782,RECV,WR,996,993,993,192,173,173,173,-1464,0.00,0.00,0.00,0.00,0.00,0.00,0.00,0.00,0,0,0,0,0,0,0,0,0.00,0.00,0.00,0.00,0.00,0,0,0,    6F5B
360,1599798,HOVER,UPD,1500,1500,1500,0,1000,1000,1000,0,0.00,0.00,0.00,0.00,0.00,0.00,0.00,0.00,0,0,0,0,0,0,0,0,0.00,0.00,0.00,0.00,0.00,100,400,500,    EF28
361,1599819,HOVER,UPD,1500,1500,1500,0,1000,1000,1000,0,0.00,0.00,0.00,0.00,0.00,0.00,0.00,0.00,0,0,0,0,0,0,0,0,0.00,0.00,0.00,0.00,0.00,100,400,500,    90EC
362,1599819,SDIST,UPD,0,0,0,39,0,0,0,0,17.16,12.87,450.00,428.55,52.37,39.27,450.00,384.54,427,12,0,0,390,39,0,0,0.00,0.00,0.00,0.00,0.00,0,0,0,    CE9E
363,1599820,RECV,WR,996,993,993,-1410,173,173,173,-1464,0.00,0.00,0.00,0.00,0.00,0.00,0.00,0.00,0,0,0,0,0,0,0,0,0.00,0.00,0.00,0.00,0.00,0,0,0,    7317
364,1599852,HOVER,UPD,1500,1500,1500,0,1000,1000,1000,0,0.00,0.00,0.00,0.00,0.00,0.00,0.00,0.00,0,0,0,0,0,0,0,0,0.00,0.00,0.00,0.00,0.00,100,400,500,    78CE
365,1599863,RECV,WR,996,993,993,192,173,173,173,-1464,0.00,0.00,0.00,0.00,0.00,0.00,0.00,0.00,0,0,0,0,0,0,0,0,0.00,0.00,0.00,0.00,0.00,0,0,0,    B64D
366,1599889,HOVER,UPD,1500,1500,1500,0,1000,1000,1000,0,0.00,0.00,0.00,0.00,0.00,0.00,0.00,0.00,0,0,0,0,0,0,0,0,0.00,0.00,0.00,0.00,0.00,100,400,500,    496C
367,1599910,HOVER,UPD,1500,1500,1500,0,1000,1000,1000,0,0.00,0.00,0.00,0.00,0.00,0.00,0.00,0.00,0,0,0,0,0,0,0,0,0.00,0.00,0.00,0.00,0.00,100,400,500,    D6A7
368,1599910,SDIST,UPD,0,0,0,39,0,0,0,0,17.14,12.85,450.00,428.58,52.71,39.53,450.00,384.11,430,12,0,0,380,39,0,0,0.00,0.00,0.00,0.00,0.00,0,0,0,    3BB4
369,1599921,RECV,WR,996,993,993,-1410,173,173,173,-1464,0.00,0.00,0.00,0.00,0.00,0.00,0.00,0.00,0,0,0,0,0,0,0,0,0.00,0.00,0.00,0.00,0.00,0,0,0,    8B10
370,1599943,HOVER,UPD,1500,1500,1500,0,1000,1000,1000,0,0.00,0.00,0.00,0.00,0.00,0.00,0.00,0.00,0,0,0,0,0,0,0,0,0.00,0.00,0.00,0.00,0.00,100,400,500,    4D12
371,1599954,RECV,WR,996,993,993,192,173,173,173,-1464,0.00,0.00,0.00,0.00,0.00,0.00,0.00,0.00,0,0,0,0,0,0,0,0,0.00,0.00,0.00,0.00,0.00,0,0,0,    7D13
372,1599980,HOVER,UPD,1500,1500,1500,0,1000,1000,1000,0,0.00,0.00,0.00,0.00,0.00,0.00,0.00,0.00,0,0,0,0,0,0,0,0,0.00,0.00,0.00,0.00,0.00,100,400,500,     F27
373,1600001,HOVER,UPD,1500,1500,1500,0,1000,1000,1000,0,0.00,0.00,0.00,0.00,0.00,0.00,0.00,0.00,0,0,0,0,0,0,0,0,0.00,0.00,0.00,0.00,0.00,100,400,500,    E913
374,1600012,RECV,WR,996,993,993,-1410,173,173,173,-1464,0.00,0.00,0.00,0.00,0.00,0.00,0.00,0.00,0,0,0,0,0,0,0,0,0.00,0.00,0.00,0.00,0.00,0,0,0,    8C50
375,1600023,SDIST,UPD,0,0,0,39,0,0,0,0,17.16,12.87,450.00,428.55,53.02,39.76,450.00,383.73,427,12,0,0,380,39,0,0,0.00,0.00,0.00,0.00,0.00,0,0,0,    A42E
376,1600033,RECV,WR,996,993,993,192,173,173,173,-1464,0.00,0.00,0.00,0.00,0.00,0.00,0.00,0.00,0,0,0,0,0,0,0,0,0.00,0.00,0.00,0.00,0.00,0,0,0,     E94
377,1600044,HOVER,UPD,1500,1500,1500,0,1000,1000,1000,0,0.00,0.00,0.00,0.00,0.00,0.00,0.00,0.00,0,0,0,0,0,0,0,0,0.00,0.00,0.00,0.00,0.00,100,400,500,     1A0
378,1600076,HOVER,UPD,1500,1500,1500,0,1000,1000,1000,0,0.00,0.00,0.00,0.00,0.00,0.00,0.00,0.00,0,0,0,0,0,0,0,0,0.00,0.00,0.00,0.00,0.00,100,400,500,    29CB
379,1600078,RECV,WR,996,993,993,-1410,173,173,173,-1464,0.00,0.00,0.00,0.00,0.00,0.00,0.00,0.00,0,0,0,0,0,0,0,0,0.00,0.00,0.00,0.00,0.00,0,0,0,    2FB2
380,1600102,RECV,WR,996,993,993,192,173,173,173,-1464,0.00,0.00,0.00,0.00,0.00,0.00,0.00,0.00,0,0,0,0,0,0,0,0,0.00,0.00,0.00,0.00,0.00,0,0,0,    18D7
381,1600113,HOVER,UPD,1500,1500,1500,0,1000,1000,1000,0,0.00,0.00,0.00,0.00,0.00,0.00,0.00,0.00,0,0,0,0,0,0,0,0,0.00,0.00,0.00,0.00,0.00,100,400,500,    8237
382,1600124,SDIST,UPD,0,0,0,39,0,0,0,0,17.14,12.85,450.00,428.58,53.29,39.97,450.00,383.39,430,12,0,0,380,39,0,0,0.00,0.00,0.00,0.00,0.00,0,0,0,    1BBF
383,1600140,HOVER,UPD,1500,1500,1500,0,1000,1000,1000,0,0.00,0.00,0.00,0.00,0.00,0.00,0.00,0.00,0,0,0,0,0,0,0,0,0.00,0.00,0.00,0.00,0.00,100,400,500,    1982
384,1600151,RECV,WR,996,993,993,-1410,173,173,173,-1464,0.00,0.00,0.00,0.00,0.00,0.00,0.00,0.00,0,0,0,0,0,0,0,0,0.00,0.00,0.00,0.00,0.00,0,0,0,    7746
385,1600166,RECV,WR,996,993,993,192,173,173,173,-1464,0.00,0.00,0.00,0.00,0.00,0.00,0.00,0.00,0,0,0,0,0,0,0,0,0.00,0.00,0.00,0.00,0.00,0,0,0,    8911
386,1600177,HOVER,UPD,1500,1500,1500,0,1000,1000,1000,0,0.00,0.00,0.00,0.00,0.00,0.00,0.00,0.00,0,0,0,0,0,0,0,0,0.00,0.00,0.00,0.00,0.00,100,400,500,    D2E1
